Timestamp,Throttle,Pitch,Yaw,Roll,KillSwitch,Emergency,Ax_ms2,Ay_ms2,Az_ms2,Gx_dps,Gy_dps,Gz_dps
# Flight Data Log - Single Flight Mode
# Generated by Starship Hand Controller
# Timestamp: milliseconds since loop start (flight time)
# Control values: 0-255 (127=center)
# Emergency: 1=active, 0=normal
# File overwrites on each restart
# ========================
2433,,,,,,,, # System startup - Hand Controller initialized
16893,,,,,,,, # Flight started - Loop timestamp zero point set
49,131,128,131,131,131,0,0.04790,-0.00479,10.02316,-0.68702,-0.25954,-0.40458
170,131,128,131,131,131,0,0.03114,-0.03593,9.99681,-0.60305,-0.05344,-0.38168
290,131,128,131,131,131,0,0.04072,0.04072,9.99442,-0.63359,-0.06870,-0.32824
411,131,128,131,131,131,0,0.01916,0.01437,9.99681,-0.67939,-0.06870,-0.39695
531,131,128,131,131,131,0,0.00958,-0.02874,9.99681,-0.79389,-0.24427,-0.36641
652,131,128,131,131,131,0,0.03114,0.00240,9.99681,-0.71756,-0.33588,-0.28244
772,131,128,131,131,131,0,0.04790,-0.01677,10.00639,-0.64122,-0.16031,-0.34351
893,131,128,131,131,131,0,0.04790,0.00958,10.01837,-0.74046,-0.03053,-0.27481
1014,131,128,131,131,131,0,0.01437,-0.01677,10.01597,-0.70229,-0.29008,-0.39695
1134,131,128,131,131,131,0,0.03832,-0.00240,10.00400,-0.69466,-0.04580,-0.41221
1255,131,128,131,131,131,0,0.04072,-0.00479,9.99681,-0.64885,-0.09160,-0.24427
1375,131,128,131,131,131,0,0.05269,0.02395,9.98244,-0.69466,-0.11450,-0.46565
1496,131,128,131,131,131,0,0.02874,0.02156,10.00639,-0.62595,-0.14504,-0.35878
1616,131,128,131,131,131,0,0.03353,-0.00240,9.99202,-0.64885,-0.10687,-0.29771
1737,131,128,131,131,131,0,0.04072,-0.02156,10.01358,-0.74809,-0.12214,-0.23664
1857,131,128,131,131,131,0,0.02874,-0.00240,9.98963,-0.74046,-0.11450,-0.40458
1978,131,128,131,131,131,0,0.05269,0.00958,10.00160,-0.76336,-0.21374,-0.29008
2098,131,128,131,131,131,0,0.05030,-0.00958,9.98963,-0.71756,-0.12977,-0.32824
2219,131,128,131,131,131,0,0.01916,0.03114,10.03034,-0.81679,-0.14504,-0.48092
2340,131,128,131,131,131,0,0.04311,-0.00479,10.00160,-0.64122,-0.28244,-0.38168
2460,131,128,131,131,131,0,0.00240,0.00719,9.98723,-0.86260,-0.08397,-0.23664
2581,131,128,131,131,131,0,0.05269,0.00000,10.01118,-0.71756,-0.33588,-0.25954
2701,131,128,131,131,131,0,0.03114,0.01198,10.01358,-0.69466,-0.05344,-0.32824
2822,131,128,131,131,131,0,0.02635,0.01198,9.98484,-0.72519,-0.15267,-0.23664
2942,131,128,131,131,131,0,0.03114,0.00000,10.02316,-0.80153,-0.15267,-0.35115
3063,131,128,131,131,131,0,0.06227,0.02395,10.00160,-0.64885,-0.15267,-0.20611
3183,131,128,131,131,131,0,0.05509,0.00000,9.98963,-0.68702,-0.15267,-0.35878
3304,131,128,131,131,131,0,0.03593,-0.00479,10.02076,-0.77863,-0.16031,-0.23664
3424,131,128,131,131,131,0,0.03593,0.00479,10.02555,-0.72519,-0.11450,-0.30534
3545,131,128,131,131,131,0,0.01916,-0.00479,9.99681,-0.70229,-0.16031,-0.36641
3665,131,128,131,131,131,0,0.03353,0.02635,10.00879,-0.88550,-0.10687,-0.51145
3786,131,128,131,131,131,0,0.05269,0.03114,10.00160,-0.67939,-0.03053,-0.27481
3907,131,128,131,131,131,0,0.03832,0.00479,9.97286,-0.77099,-0.08397,-0.39695
4027,131,128,131,131,131,0,0.02874,0.00479,9.99921,-0.63359,-0.14504,-0.25954
4148,131,128,131,131,131,0,0.03832,0.00240,9.98723,-0.64885,-0.12214,-0.34351
4268,131,128,131,131,131,0,0.04072,0.01198,9.97526,-0.77863,-0.02290,-0.41985
4389,131,128,131,131,131,0,0.02635,-0.01437,9.97765,-0.62595,-0.15267,-0.29771
4509,131,128,131,131,131,0,0.05748,0.01916,9.99442,-0.73282,-0.10687,-0.29008
4630,131,128,131,131,131,0,0.03593,0.01916,10.00160,-0.56489,-0.09924,-0.38168
4750,131,128,131,131,131,0,0.03593,0.01916,10.00879,-0.63359,-0.03053,-0.25954
4871,131,128,131,131,131,0,0.05030,0.01437,10.00639,-0.70992,-0.12977,-0.45038
4991,131,128,131,131,131,0,0.01677,0.00958,9.97765,-0.76336,-0.04580,-0.38168
5112,131,128,131,131,131,0,0.04072,0.00719,9.97047,-0.64885,-0.23664,-0.28244
5232,131,128,131,131,131,0,0.05509,0.01916,10.00400,-0.64885,-0.08397,-0.32061
5353,131,128,131,131,131,0,0.05988,0.00719,10.01358,-0.78626,-0.18321,-0.43511
5474,131,128,131,131,131,0,0.03114,0.01677,9.99681,-0.69466,-0.06107,-0.43511
5594,131,128,131,131,131,0,0.05030,0.00240,10.00160,-0.70992,-0.22901,-0.21374
5715,131,128,131,131,131,0,0.00240,0.01437,10.00639,-0.60305,-0.16794,-0.32061
5835,131,128,131,131,131,0,0.05988,0.00000,10.00400,-0.63359,-0.20611,-0.31298
5956,131,128,131,131,131,0,0.03353,-0.01916,10.00639,-0.67939,-0.00763,-0.29008
6076,131,128,131,131,131,0,0.01916,0.00479,10.01358,-0.67176,-0.11450,-0.27481
6197,131,128,131,131,131,0,0.03593,0.01437,9.98963,-0.66412,-0.20611,-0.33588
6317,131,128,131,131,131,0,0.01677,-0.01198,10.00160,-0.70229,-0.06870,-0.34351
6438,131,128,131,131,131,0,0.04790,0.00000,9.98005,-0.66412,-0.17557,-0.38168
6558,131,128,131,131,131,0,0.02635,-0.01198,10.02076,-0.77863,-0.22901,-0.33588
6679,131,128,131,131,131,0,0.03353,0.00719,9.99681,-0.76336,-0.24427,-0.26718
6800,131,128,131,131,131,0,0.03114,-0.00719,10.01358,-0.75573,-0.15267,-0.32824
6920,131,128,131,131,131,0,0.06467,0.02395,9.99442,-0.78626,-0.17557,-0.39695
7041,131,128,131,131,131,0,0.04790,0.02874,10.00400,-0.74809,-0.09924,-0.35878
7161,131,128,131,131,131,0,0.03593,-0.01677,9.98244,-0.59542,-0.06870,-0.30534
7282,131,128,131,131,131,0,0.02395,-0.00240,10.01358,-0.60305,-0.04580,-0.28244
7402,131,128,131,131,131,0,0.04072,-0.01916,10.01118,-0.64885,0.02290,-0.25954
7523,131,128,131,131,131,0,0.04551,-0.00719,10.00879,-0.66412,0.07634,-0.31298
7643,131,128,131,131,131,0,0.03593,0.01916,10.01118,-0.63359,-0.19847,-0.29008
7764,131,128,131,131,131,0,0.01677,-0.00479,9.98484,-0.74046,-0.03053,-0.25954
7884,131,128,131,131,131,0,0.03353,-0.00240,10.00400,-0.66412,-0.32824,-0.22901
8005,131,128,131,131,131,0,0.05509,-0.01198,9.98484,-0.61832,-0.06870,-0.39695
8125,131,128,131,131,131,0,0.04790,-0.02395,10.01358,-0.83969,-0.09924,-0.38931
8246,131,128,131,131,131,0,0.01437,0.00958,9.99442,-0.70992,-0.12977,-0.22901
8367,131,128,131,131,131,0,0.04551,0.01198,9.98723,-0.71756,-0.18321,-0.25954
8487,131,128,131,131,131,0,0.01677,0.00000,10.00400,-0.80916,-0.06107,-0.33588
8608,131,128,131,131,131,0,0.02395,0.00000,9.97047,-0.87023,-0.02290,-0.31298
8728,131,128,131,131,131,0,0.02874,0.00240,10.02316,-0.83206,-0.26718,-0.42748
8849,131,128,131,131,131,0,0.00000,0.03114,10.00879,-0.74046,-0.07634,-0.22137
8969,131,128,131,131,131,0,0.03593,-0.01677,9.99681,-0.72519,-0.22137,-0.25954
9090,131,128,131,131,131,0,0.05269,0.01916,9.98484,-0.67939,-0.03053,-0.32061
9210,131,128,131,131,131,0,0.03832,-0.02395,9.99681,-0.63359,-0.15267,-0.32061
9331,131,128,131,131,131,0,0.04311,0.00958,10.00160,-0.55725,-0.17557,-0.36641
9451,131,128,131,131,131,0,0.05748,0.01437,10.01118,-0.61832,-0.22137,-0.31298
9572,131,128,131,131,131,0,0.00479,0.00719,9.98963,-0.78626,-0.25191,-0.25191
9692,131,128,131,131,131,0,0.06946,-0.00719,10.01597,-0.72519,-0.32061,-0.41221
9813,131,128,131,131,131,0,0.03353,-0.01677,10.01118,-0.76336,-0.21374,-0.47328
9934,131,128,131,131,131,0,0.06227,0.02635,9.99921,-0.69466,-0.12214,-0.28244
10054,131,128,131,131,131,0,0.04551,-0.01198,10.01358,-0.82443,-0.17557,-0.25954
10175,131,128,131,131,131,0,0.05509,-0.00958,9.98723,-0.74809,-0.11450,-0.46565
10295,131,128,131,131,131,0,0.01198,0.01198,9.98723,-0.82443,-0.22137,-0.34351
10416,131,128,131,131,131,0,0.07664,0.01677,10.00160,-0.77099,-0.19084,-0.36641
10536,131,128,131,131,131,0,0.00958,-0.02395,10.01837,-0.55725,-0.19084,-0.25191
10657,131,128,131,131,131,0,0.01198,-0.02395,10.01837,-0.83206,-0.29771,-0.35878
10777,131,128,131,131,131,0,0.03353,-0.01198,10.02316,-0.72519,-0.22137,-0.39695
10898,131,128,131,131,131,0,0.04072,0.03832,10.03753,-0.87023,-0.06107,-0.26718
11018,131,128,131,131,131,0,0.04072,-0.00958,9.99442,-0.67939,-0.21374,-0.29771
11139,131,128,131,131,131,0,0.02395,0.01916,10.02076,-0.66412,-0.08397,-0.41221
11259,131,128,131,131,131,0,0.05509,-0.01437,9.99202,-0.62595,-0.19847,-0.29008
11380,131,128,131,131,131,0,0.05269,-0.03114,10.00639,-0.64885,-0.12977,-0.29771
11501,131,128,131,131,131,0,0.03832,0.00000,9.99921,-0.81679,-0.17557,-0.52672
11621,131,128,131,131,131,0,0.00479,-0.02156,9.99681,-0.69466,-0.20611,-0.31298
11742,131,128,131,131,131,0,0.04551,-0.00479,10.00160,-0.73282,-0.03817,-0.32824
11862,131,128,131,131,131,0,0.04072,-0.00479,10.00400,-0.70992,-0.17557,-0.37405
11983,131,128,131,131,131,0,0.01677,0.02156,10.02316,-0.77099,-0.09924,-0.44275
12103,131,128,131,131,131,0,0.03593,-0.01198,9.99681,-0.73282,-0.06870,-0.29771
12224,131,128,131,131,131,0,0.02874,0.00719,9.98723,-0.80153,-0.14504,-0.36641
12344,131,128,131,131,131,0,0.04311,-0.00479,10.01358,-0.67939,-0.21374,-0.45038
12465,131,128,131,131,131,0,0.05269,0.00958,9.99921,-0.68702,-0.16031,-0.22137
12585,131,128,131,131,131,0,0.03353,0.01677,9.98963,-0.69466,-0.34351,-0.40458
12706,131,128,131,131,131,0,0.01916,-0.00479,9.99681,-0.71756,-0.09160,-0.33588
12827,131,128,131,131,131,0,0.03832,-0.01437,10.01597,-0.79389,-0.28244,-0.28244
12947,131,128,131,131,131,0,0.03114,-0.00719,10.03992,-0.64122,-0.07634,-0.29771
13068,131,128,131,131,131,0,0.02874,-0.00240,9.99921,-0.76336,-0.18321,-0.29771
13188,131,128,131,131,131,0,0.04072,0.00958,9.99921,-0.61832,-0.17557,-0.35115
13309,131,128,131,131,131,0,0.07185,0.00719,9.98963,-0.86260,-0.25191,-0.16794
13429,131,128,131,131,131,0,0.02156,0.00000,10.02316,-0.66412,-0.06107,-0.44275
13550,131,128,131,131,131,0,0.00958,0.00958,10.01597,-0.67176,-0.25191,-0.50382
13670,131,128,131,131,131,0,0.01916,0.02395,10.00879,-0.56489,-0.12214,-0.34351
13791,131,128,131,131,131,0,0.02156,0.00479,9.98005,-0.69466,-0.17557,-0.36641
13911,131,128,131,131,131,0,0.03353,-0.01198,10.00400,-0.65649,-0.09160,-0.30534
14032,131,128,131,131,131,0,0.05269,-0.00479,9.98963,-0.77099,-0.21374,-0.44275
14152,131,128,131,131,131,0,0.02874,-0.00958,10.00639,-0.72519,-0.15267,-0.23664
14273,131,128,131,131,131,0,0.00958,-0.00958,10.01358,-0.78626,-0.25191,-0.26718
14394,131,128,131,131,131,0,0.04311,0.00240,10.01118,-0.66412,0.07634,-0.29008
14514,131,128,131,131,131,0,-0.00719,-0.01437,10.00400,-0.71756,-0.09924,-0.21374
14635,131,128,131,131,131,0,0.02395,0.01437,10.00879,-0.64122,-0.23664,-0.32824
14755,131,128,131,131,131,0,0.04311,0.02635,10.00160,-0.67939,-0.17557,-0.34351
14876,131,128,131,131,131,0,0.03353,-0.00719,10.01358,-0.78626,-0.09924,-0.37405
14996,131,128,131,131,131,0,0.02395,0.00479,10.00400,-0.70229,-0.16031,-0.30534
15117,131,128,131,131,131,0,0.00719,0.01198,10.00400,-0.73282,-0.13740,-0.34351
15237,131,128,131,131,131,0,0.05988,0.00240,10.01597,-0.67176,-0.11450,-0.37405
15358,131,128,131,131,131,0,0.06227,-0.01916,10.00160,-0.64122,-0.22901,-0.32061
15478,131,128,131,131,131,0,0.05269,0.01198,10.00879,-0.66412,-0.12977,-0.34351
15599,131,128,131,131,131,0,0.04072,0.01916,9.99921,-0.50382,-0.22901,-0.31298
15719,131,128,131,131,131,0,0.02156,0.00000,10.02795,-0.58779,-0.22901,-0.22901
15840,131,128,131,131,131,0,0.05988,0.01198,10.00879,-0.71756,-0.09924,-0.42748
15961,131,128,131,131,131,0,0.03114,-0.00479,10.00400,-0.73282,-0.17557,-0.35878
16081,131,128,131,131,131,0,0.00719,-0.00240,10.00160,-0.64885,-0.19084,-0.38168
16202,131,128,131,131,131,0,0.03353,0.00240,10.02316,-0.80153,-0.14504,-0.41985
16322,131,128,131,131,131,0,0.04072,0.02395,10.03274,-0.68702,-0.06107,-0.30534
16443,131,128,131,131,131,0,0.05030,0.01677,9.99681,-0.80916,-0.15267,-0.35115
16563,131,128,131,131,131,0,0.03593,0.03353,10.00879,-0.71756,-0.21374,-0.33588
16684,131,128,131,131,131,0,0.04551,-0.02395,10.01118,-0.62595,0.00763,-0.38931
16804,131,128,131,131,131,0,0.02874,0.03832,9.98723,-0.85496,-0.15267,-0.38931
16925,131,128,131,131,131,0,0.01198,0.01198,10.00160,-0.58779,-0.16031,-0.35878
17045,131,128,131,131,131,0,0.02874,-0.00479,9.98963,-0.63359,-0.06107,-0.38168
17166,131,128,131,131,131,0,0.03114,-0.00958,9.99202,-0.58015,-0.06107,-0.25954
17287,131,128,131,131,131,0,0.05269,0.00000,10.01118,-0.83206,-0.20611,-0.26718
17407,131,128,131,131,131,0,0.04072,-0.03832,10.00639,-0.61069,-0.22137,-0.41221
17528,131,128,131,131,131,0,0.00958,-0.00958,10.00879,-0.80916,-0.13740,-0.24427
17648,131,128,131,131,131,0,0.02874,0.00240,10.03753,-0.77863,0.03053,-0.39695
17769,131,128,131,131,131,0,0.05509,-0.00719,10.03274,-0.72519,0.02290,-0.19847
17889,131,128,131,131,131,0,0.04790,-0.01677,10.00160,-0.70229,-0.09924,-0.20611
18010,131,128,131,131,131,0,0.04072,-0.01437,10.01118,-0.64122,-0.24427,-0.22901
18130,131,128,131,131,131,0,0.02635,0.00240,10.00400,-0.63359,-0.00763,-0.27481
18251,131,128,131,131,131,0,0.03353,0.00000,10.03992,-0.67176,-0.09160,-0.31298
18371,131,128,131,131,131,0,0.02635,0.00000,9.99921,-0.74046,-0.13740,-0.21374
18492,131,128,131,131,131,0,0.02635,-0.01198,10.00400,-0.65649,-0.05344,-0.32824
18612,131,128,131,131,131,0,0.04790,-0.04551,9.99442,-0.56489,-0.24427,-0.25191
18733,131,128,131,131,131,0,0.02874,0.00000,9.98005,-0.78626,-0.16794,-0.39695
18854,131,128,131,131,131,0,0.06467,0.01198,9.98963,-0.66412,-0.20611,-0.29771
18974,131,128,131,131,131,0,0.05030,0.00240,10.00160,-0.70229,-0.16031,-0.35878
19095,131,128,131,131,131,0,0.03114,-0.01916,9.99681,-0.85496,-0.17557,-0.25191
19215,131,128,131,131,131,0,0.01437,0.01677,10.01118,-0.86260,-0.17557,-0.41985
19336,131,128,131,131,131,0,0.03114,0.00000,10.02795,-0.66412,-0.03817,-0.26718
19456,131,128,131,131,131,0,0.02874,-0.00240,9.98963,-0.54198,-0.09160,-0.38168
19577,131,128,131,131,131,0,0.00479,0.00000,9.98484,-0.73282,-0.04580,-0.25954
19697,131,128,131,131,131,0,0.04551,0.01437,10.00639,-0.74046,-0.23664,-0.39695
19818,131,128,131,131,131,0,0.03593,-0.01437,10.00639,-0.79389,-0.12977,-0.34351
19938,131,128,131,131,131,0,0.05030,0.01916,10.01358,-0.66412,-0.23664,-0.19084
20059,131,128,131,131,131,0,0.00240,0.00000,10.00160,-0.75573,-0.29771,-0.34351
20179,131,128,131,131,131,0,0.02635,0.00958,10.03274,-0.67939,-0.22901,-0.38168
20300,131,128,131,131,131,0,0.02635,0.00240,10.01597,-0.70992,-0.09160,-0.40458
20421,131,128,131,131,131,0,0.04072,0.00479,9.99202,-0.69466,-0.22901,-0.33588
20541,131,128,131,131,131,0,0.02156,0.00719,10.02316,-0.68702,-0.19084,-0.35878
20662,131,128,131,131,131,0,0.00719,-0.00240,10.01837,-0.70992,-0.28244,-0.32824
20782,131,128,131,131,131,0,0.03593,-0.00240,10.01358,-0.64122,-0.22137,-0.29771
20903,131,128,131,131,131,0,0.01198,-0.00240,10.01597,-0.58015,-0.25191,-0.32824
21023,131,128,131,131,131,0,0.04311,-0.01437,10.02076,-0.64122,-0.28244,-0.45802
21144,131,128,131,131,131,0,0.02874,0.00000,10.00879,-0.66412,-0.10687,-0.44275
21264,131,128,131,131,131,0,0.03114,-0.02156,9.99442,-0.70992,-0.11450,-0.20611
21385,131,128,131,131,131,0,0.04551,0.00719,9.99681,-0.70229,-0.18321,-0.32061
21505,131,128,131,131,131,0,0.07425,-0.01437,10.01118,-0.61832,-0.02290,-0.34351
21626,131,128,131,131,131,0,0.01437,-0.00479,9.99681,-0.69466,-0.06870,-0.40458
21746,131,128,131,131,131,0,0.03353,-0.01916,10.00400,-0.63359,-0.19847,-0.29771
21867,131,128,131,131,131,0,0.02874,-0.00479,9.99921,-0.56489,-0.12977,-0.32061
21988,131,128,131,131,131,0,0.04072,0.00000,9.99681,-0.49618,-0.16794,-0.28244
22108,131,128,131,131,131,0,0.04551,0.02395,10.01837,-0.56489,-0.06107,-0.36641
22229,131,128,131,131,131,0,0.03114,0.01677,9.98963,-0.82443,-0.16031,-0.36641
22349,131,128,131,131,131,0,0.00958,0.00479,10.00879,-0.61069,-0.08397,-0.42748
22470,131,128,131,131,131,0,0.02156,0.03114,10.01118,-0.70992,-0.25954,-0.35878
22590,131,128,131,131,131,0,0.03353,0.01916,10.01118,-0.82443,-0.16794,-0.23664
22711,131,128,131,131,131,0,0.04790,-0.02635,9.99442,-0.64885,-0.07634,-0.38931
22831,131,128,131,131,131,0,0.05030,0.00958,10.00639,-0.72519,0.04580,-0.32824
22952,131,128,131,131,131,0,0.03832,-0.00958,9.99921,-0.61832,-0.24427,-0.29771
23072,131,128,131,131,131,0,0.03353,-0.00719,9.99921,-0.66412,-0.07634,-0.32061
23193,131,128,131,131,131,0,0.00479,-0.01916,9.99681,-0.68702,-0.12977,-0.35115
23314,131,128,131,131,131,0,0.01677,0.03114,10.02555,-0.70992,-0.12214,-0.30534
23434,131,128,131,131,131,0,0.04551,-0.00240,10.00400,-0.71756,-0.22901,-0.31298
23555,131,128,131,131,131,0,0.05509,-0.03114,9.98723,-0.81679,-0.17557,-0.27481
23675,131,128,131,131,131,0,0.03593,0.00000,10.02316,-0.73282,-0.05344,-0.26718
23796,131,128,131,131,131,0,0.05509,0.02156,10.01597,-0.68702,-0.05344,-0.35115
23916,131,128,131,131,131,0,0.01677,-0.01677,10.02316,-0.79389,-0.13740,-0.36641
24037,131,128,131,131,131,0,0.03832,0.01437,10.01597,-0.72519,-0.23664,-0.30534
24157,131,128,131,131,131,0,0.06227,-0.03353,10.00639,-0.74046,-0.10687,-0.43511
24278,131,128,131,131,131,0,0.05269,-0.00240,10.00639,-0.76336,-0.22901,-0.28244
24398,131,128,131,131,131,0,0.00719,-0.00719,10.01597,-0.61832,-0.22137,-0.36641
24519,131,128,131,131,131,0,0.05030,0.00240,10.03034,-0.67176,-0.11450,-0.29008
24639,131,128,131,131,131,0,0.01437,-0.01437,10.00639,-0.66412,-0.07634,-0.25954
24760,131,128,131,131,131,0,0.02874,0.00000,10.01837,-0.67939,-0.11450,-0.32061
24881,131,128,131,131,131,0,0.02874,-0.00958,10.01358,-0.70229,-0.12977,-0.41985
25001,131,128,131,131,131,0,0.02635,0.00000,10.01118,-0.58779,-0.09924,-0.25191
25122,131,128,131,131,131,0,0.05030,-0.01198,9.99442,-0.75573,-0.25191,-0.41221
25242,131,128,131,131,131,0,0.04790,0.00479,9.98723,-0.62595,-0.11450,-0.35115
25363,131,128,131,131,131,0,0.02156,-0.01916,10.00400,-0.63359,-0.19847,-0.34351
25483,131,128,131,131,131,0,0.07425,0.02874,10.00400,-0.64122,-0.19084,-0.48855
25604,131,128,131,131,131,0,0.03832,-0.01198,9.98484,-0.69466,-0.20611,-0.41985
25724,131,128,131,131,131,0,0.02156,-0.02395,9.99681,-0.62595,-0.12977,-0.37405
25845,131,128,131,131,131,0,0.07904,0.00240,10.01358,-0.70992,-0.09924,-0.30534
25965,131,128,131,131,131,0,0.04072,-0.02395,9.98244,-0.75573,-0.16031,-0.42748
26086,131,128,131,131,131,0,0.02635,-0.02395,10.00400,-0.70992,-0.19084,-0.38931
26206,131,128,131,131,131,0,0.04551,0.00958,9.99681,-0.65649,-0.09160,-0.34351
26327,131,128,131,131,131,0,0.03114,-0.02395,10.00879,-0.67939,-0.12977,-0.41221
26448,131,128,131,131,131,0,0.03832,0.00479,10.00160,-0.77863,-0.31298,-0.38168
26568,131,128,131,131,131,0,0.01916,0.00719,10.00400,-0.71756,-0.18321,-0.23664
26689,131,128,131,131,131,0,0.02635,-0.01916,9.99921,-0.72519,-0.06870,-0.29771
26809,131,128,131,131,131,0,0.06706,-0.01916,10.01358,-0.80916,-0.16794,-0.35115
26930,131,128,131,131,131,0,0.01677,0.00719,9.98005,-0.75573,-0.22137,-0.32061
27050,131,128,131,131,131,0,0.04072,0.00958,10.01118,-0.74046,-0.22901,-0.30534
27171,131,128,131,131,131,0,0.01198,0.00719,9.97286,-0.73282,-0.27481,-0.38931
27291,131,128,131,131,131,0,0.04072,0.00479,10.00160,-0.60305,-0.19084,-0.29771
27412,131,128,131,131,131,0,0.03593,0.00719,10.01118,-0.55725,-0.10687,-0.29771
27532,131,128,131,131,131,0,0.05509,0.00240,10.00160,-0.72519,-0.16794,-0.35115
27653,131,128,131,131,131,0,0.03114,-0.00958,10.00400,-0.69466,0.06870,-0.42748
27773,131,128,131,131,131,0,0.02156,0.03114,10.00400,-0.58015,-0.10687,-0.32824
27894,131,128,131,131,131,0,0.03593,0.00000,9.99442,-0.79389,-0.14504,-0.37405
28015,131,128,131,131,131,0,0.04551,-0.01677,9.99921,-0.69466,-0.12214,-0.41221
28135,131,128,131,131,131,0,0.05988,-0.01198,10.03753,-0.68702,-0.22901,-0.19084
28256,131,128,131,131,131,0,0.04311,-0.00719,9.98244,-0.80916,-0.09160,-0.25191
28376,131,128,131,131,131,0,0.04311,-0.00479,10.02795,-0.80153,-0.21374,-0.31298
28497,131,128,131,131,131,0,0.04551,0.01198,10.00400,-0.77099,-0.12214,-0.28244
28617,131,128,131,131,131,0,0.00000,-0.00240,10.00639,-0.66412,-0.22901,-0.28244
28738,131,128,131,131,131,0,0.04072,-0.00958,9.99442,-0.85496,-0.06107,-0.40458
28858,131,128,131,131,131,0,0.04072,0.00000,10.00639,-0.54198,-0.24427,-0.41221
28979,131,128,131,131,131,0,0.02635,-0.00240,10.00639,-0.70229,-0.08397,-0.28244
29099,131,128,131,131,131,0,0.04790,-0.01198,10.01358,-0.70992,-0.33588,-0.41985
29220,131,128,131,131,131,0,0.04072,0.00958,10.00160,-0.67939,-0.01527,-0.34351
29341,131,128,131,131,131,0,0.04551,0.00000,9.98723,-0.71756,-0.09160,-0.22901
29461,131,128,131,131,131,0,0.03353,-0.00240,10.01597,-0.80153,-0.12214,-0.48092
29582,131,128,131,131,131,0,0.04311,0.00000,10.00400,-0.65649,-0.06107,-0.28244
29702,131,128,131,131,131,0,0.02395,0.00479,9.98723,-0.65649,-0.10687,-0.31298
29823,131,128,131,131,131,0,0.02395,-0.02395,10.00400,-0.64885,-0.19847,-0.32824
29943,131,128,131,131,131,0,0.01437,0.00719,9.98244,-0.61069,-0.26718,-0.27481
30064,131,128,131,131,131,0,0.04551,-0.01198,10.00400,-0.73282,-0.12977,-0.47328
30184,131,128,131,131,131,0,0.02635,-0.03593,9.99921,-0.70229,-0.04580,-0.41221
30305,131,128,131,131,131,0,0.02635,-0.02395,9.98484,-0.73282,-0.03817,-0.26718
30425,131,128,131,131,131,0,0.03593,0.00000,10.00160,-0.64885,-0.09924,-0.35878
30546,131,128,131,131,131,0,0.01437,-0.02874,9.98244,-0.70229,-0.09160,-0.30534
30666,131,128,131,131,131,0,0.04072,0.00719,10.01597,-0.74809,-0.21374,-0.32061
30787,131,128,131,131,131,0,0.01677,0.00240,10.01597,-0.61069,0.00000,-0.27481
30908,131,128,131,131,131,0,0.06227,0.00240,9.98963,-0.67939,-0.22137,-0.41221
31028,131,128,131,131,131,0,0.02874,0.00958,9.98005,-0.76336,-0.05344,-0.32061
31149,131,128,131,131,131,0,0.05748,-0.01677,9.98723,-0.66412,-0.12214,-0.26718
31269,131,128,131,131,131,0,0.03353,-0.00719,10.02555,-0.70992,-0.09160,-0.35115
31390,131,128,131,131,131,0,0.03353,-0.00240,10.01358,-0.68702,-0.08397,-0.35878
31510,131,128,131,131,131,0,0.03593,0.00240,10.00400,-0.76336,-0.30534,-0.38168
31631,131,128,131,131,131,0,0.02156,-0.00719,9.99442,-0.74809,-0.06107,-0.25191
31751,131,128,131,131,131,0,0.05748,0.00719,10.01597,-0.81679,-0.13740,-0.34351
31872,131,128,131,131,131,0,0.04311,-0.01437,10.01358,-0.77863,-0.17557,-0.38168
31992,131,128,131,131,131,0,0.03353,-0.02395,10.00879,-0.60305,-0.19847,-0.32061
32113,131,128,131,131,131,0,0.02395,0.00479,10.00879,-0.88550,-0.25954,-0.50382
32233,131,128,131,131,131,0,0.04311,0.01916,10.01358,-0.69466,-0.12214,-0.41221
32354,131,128,131,131,131,0,0.05509,0.02156,10.01597,-0.60305,-0.17557,-0.27481
32475,131,128,131,131,131,0,0.06946,-0.00719,10.02076,-0.75573,-0.19847,-0.41985
32595,131,128,131,131,131,0,0.02874,0.01437,10.00400,-0.68702,-0.12214,-0.19084
32716,131,128,131,131,131,0,-0.00240,-0.01677,10.01358,-0.70229,-0.16794,-0.45802
32836,131,128,131,131,131,0,0.04311,-0.00958,9.98484,-0.71756,-0.19084,-0.28244
32957,131,128,131,131,131,0,0.04311,-0.01677,10.01837,-0.66412,-0.28244,-0.23664
33077,131,128,131,131,131,0,0.03114,0.01437,10.01597,-0.62595,-0.19084,-0.37405
33198,131,128,131,131,131,0,0.06467,-0.02635,10.01358,-0.61832,-0.14504,-0.35115
33318,131,128,131,131,131,0,0.05269,0.03832,10.00879,-0.73282,-0.16794,-0.26718
33439,131,128,131,131,131,0,0.05988,-0.03593,9.99681,-0.80916,-0.35878,-0.33588
33559,131,128,131,131,131,0,0.07185,-0.02395,10.01118,-0.59542,-0.14504,-0.27481
33680,131,128,131,131,131,0,0.04072,0.00479,10.00160,-0.67176,-0.25954,-0.38168
33801,131,128,131,131,131,0,0.05269,-0.02874,10.01597,-0.74809,-0.22901,-0.40458
33921,131,128,131,131,131,0,0.06706,0.03114,10.02316,-0.87023,-0.07634,-0.32061
34042,131,128,131,131,131,0,0.04311,0.02874,10.01118,-0.69466,-0.03817,-0.16794
34162,131,128,131,131,131,0,0.02395,0.00958,9.99442,-0.69466,-0.20611,-0.29008
34283,131,128,131,131,131,0,0.02874,-0.00240,10.02555,-0.63359,-0.14504,-0.31298
34403,131,128,131,131,131,0,0.04072,0.00719,9.99442,-0.79389,-0.19847,-0.27481
34524,131,128,131,131,131,0,0.06467,0.02635,10.02076,-0.67176,-0.23664,-0.38931
34644,131,128,131,131,131,0,0.02635,0.00240,10.01358,-0.77099,-0.14504,-0.22137
34765,131,128,131,131,131,0,0.03593,0.00000,10.00639,-0.78626,-0.22137,-0.42748
34885,131,128,131,131,131,0,0.04790,0.00958,10.00879,-0.80916,-0.13740,-0.32061
35006,131,128,131,131,131,0,0.05030,-0.00719,9.99442,-0.78626,-0.18321,-0.28244
35126,131,128,131,131,131,0,0.04551,0.01198,10.00160,-0.74809,-0.12214,-0.34351
35247,131,128,131,131,131,0,0.04072,0.01198,10.02316,-0.61832,-0.01527,-0.37405
35368,131,128,131,131,131,0,0.04072,0.00240,9.99681,-0.70992,-0.08397,-0.38931
35488,131,128,131,131,131,0,0.01437,0.00479,10.00879,-0.64122,-0.04580,-0.29771
35609,131,128,131,131,131,0,0.02395,-0.01677,9.99202,-0.83206,-0.20611,-0.38931
35729,131,128,131,131,131,0,0.05509,0.02395,9.99202,-0.58015,-0.12977,-0.23664
35850,131,128,131,131,131,0,0.02635,0.03114,10.00879,-0.73282,-0.19084,-0.35115
35970,131,128,131,131,131,0,0.05030,-0.02874,10.03274,-0.71756,-0.06107,-0.40458
36091,131,128,131,131,131,0,0.03353,-0.00719,10.03034,-0.67939,-0.19084,-0.32824
36211,131,128,131,131,131,0,0.06227,0.00958,10.03513,-0.70229,-0.29008,-0.35878
36332,131,128,131,131,131,0,0.01916,0.02156,10.00879,-0.69466,-0.20611,-0.35878
36452,131,128,131,131,131,0,0.04311,0.04072,9.98244,-0.85496,-0.10687,-0.43511
36573,131,128,131,131,131,0,0.04790,-0.03114,10.00879,-0.72519,-0.12977,-0.33588
36693,131,128,131,131,131,0,0.05988,-0.01437,10.00639,-0.70992,-0.25954,-0.32061
36814,131,128,131,131,131,0,0.03353,0.00958,10.00879,-0.65649,-0.08397,-0.38931
36935,131,128,131,131,131,0,0.01198,-0.02395,10.01118,-0.65649,-0.09160,-0.32824
37055,131,128,131,131,131,0,0.06227,0.02156,9.99921,-0.62595,-0.12214,-0.34351
37176,131,128,131,131,131,0,0.02874,-0.01198,9.99921,-0.70229,-0.14504,-0.25191
37296,131,128,131,131,131,0,0.02156,0.00958,10.02555,-0.65649,-0.20611,-0.29008
37417,131,128,131,131,131,0,0.05269,0.00719,9.98244,-0.71756,-0.21374,-0.35878
37537,131,128,131,131,131,0,0.05030,0.03353,10.02316,-0.71756,-0.08397,-0.28244
37658,131,128,131,131,131,0,-0.00240,0.01677,10.00879,-0.70992,-0.12977,-0.29008
37778,131,128,131,131,131,0,0.01677,-0.01437,10.00879,-0.77099,-0.22901,-0.29771
37899,131,128,131,131,131,0,0.06467,0.02635,9.98005,-0.74809,-0.16031,-0.28244
38019,131,128,131,131,131,0,0.04551,0.01916,10.00879,-0.75573,-0.25954,-0.32824
38140,131,128,131,131,131,0,0.05988,-0.02395,10.00639,-0.65649,-0.12214,-0.26718
38260,131,128,131,131,131,0,0.04790,0.00000,9.99921,-0.60305,-0.23664,-0.35115
38381,131,128,131,131,131,0,0.04551,0.02156,9.97047,-0.87023,-0.06107,-0.22137
38502,131,128,131,131,131,0,0.05748,0.00240,9.99442,-0.68702,-0.07634,-0.30534
38622,131,128,131,131,131,0,0.01198,-0.03114,10.00639,-0.75573,-0.12977,-0.28244
38743,131,128,131,131,131,0,0.03593,-0.00958,10.02316,-0.58015,-0.06870,-0.25191
38863,131,128,131,131,131,0,0.05030,0.02874,9.99681,-0.69466,-0.05344,-0.35878
38984,131,128,131,131,131,0,0.02874,-0.00719,10.00639,-0.64122,-0.15267,-0.34351
39104,131,128,131,131,131,0,0.03832,0.05269,9.99442,-0.73282,-0.21374,-0.23664
39225,131,128,131,131,131,0,0.04072,0.02874,9.99202,-0.74809,-0.19847,-0.32824
39345,131,128,131,131,131,0,0.06706,0.00958,10.00400,-0.76336,-0.09160,-0.28244
39466,131,128,131,131,131,0,0.03114,0.04311,10.02555,-0.84733,-0.16794,-0.24427
39586,131,128,131,131,131,0,0.05030,-0.03114,9.98963,-0.68702,-0.05344,-0.38168
39707,131,128,131,131,131,0,0.03353,-0.00479,10.01358,-0.66412,-0.16031,-0.36641
39828,131,128,131,131,131,0,0.03593,0.00719,9.99442,-0.73282,-0.09924,-0.26718
39948,131,128,131,131,131,0,0.04551,0.02635,10.00639,-0.74046,-0.08397,-0.25954
40069,131,128,131,131,131,0,0.01437,-0.00958,10.00879,-0.82443,-0.24427,-0.25954
40189,131,128,131,131,131,0,0.04551,-0.02156,10.01837,-0.64122,-0.09160,-0.28244
40310,131,128,131,131,131,0,0.01437,-0.02156,10.00400,-0.54962,-0.07634,-0.29771
40430,131,128,131,131,131,0,0.04311,0.00479,10.01358,-0.78626,-0.17557,-0.33588
40551,131,128,131,131,131,0,0.03353,-0.01198,10.00879,-0.69466,-0.17557,-0.22137
40671,131,128,131,131,131,0,0.04551,0.00240,9.99442,-0.73282,-0.20611,-0.34351
40792,131,128,131,131,131,0,0.05269,0.03353,10.00639,-0.77863,-0.06870,-0.32824
40912,131,128,131,131,131,0,0.04311,-0.00479,10.00400,-0.72519,-0.06107,-0.22901
41033,131,128,131,131,131,0,0.03832,-0.00240,10.00160,-0.82443,-0.19084,-0.35115
41153,131,128,131,131,131,0,0.03593,0.00000,9.99202,-0.74809,-0.07634,-0.32061
41274,131,128,131,131,131,0,0.03832,0.00000,9.99681,-0.63359,-0.15267,-0.32061
41395,131,128,131,131,131,0,0.01677,-0.00479,10.00639,-0.69466,-0.19084,-0.40458
41515,131,128,131,131,131,0,0.00240,0.01916,9.99921,-0.83206,-0.12977,-0.42748
41636,131,128,131,131,131,0,0.03593,-0.01677,10.00639,-0.89313,-0.19084,-0.46565
41756,131,128,131,131,131,0,0.04790,0.01916,9.97765,-0.73282,-0.17557,-0.34351
41877,131,128,131,131,131,0,0.04790,0.00719,10.02316,-0.64122,-0.16794,-0.39695
41997,131,128,131,131,131,0,0.02395,-0.00240,9.98244,-0.64122,-0.19847,-0.29008
42118,131,128,131,131,131,0,0.02874,0.00000,10.00160,-0.66412,-0.19847,-0.22901
42238,131,128,131,131,131,0,0.05748,0.02395,10.00400,-0.70229,-0.10687,-0.23664
42359,131,128,131,131,131,0,0.03114,0.01916,9.99681,-0.72519,-0.11450,-0.28244
42479,131,128,131,131,131,0,0.04072,0.00958,9.99442,-0.64122,-0.04580,-0.40458
42600,131,128,131,131,131,0,0.06946,0.02156,9.99442,-0.83969,-0.07634,-0.34351
42720,131,128,131,131,131,0,0.06706,0.02156,10.01837,-0.67176,-0.00763,-0.40458
42841,131,128,131,131,131,0,0.04790,-0.00240,10.02076,-0.77863,-0.17557,-0.28244
42962,131,128,131,131,131,0,0.03593,-0.01677,9.99681,-0.58015,-0.08397,-0.20611
43082,131,128,131,131,131,0,0.07185,0.00240,10.01118,-0.66412,-0.22137,-0.32824
43203,131,128,131,131,131,0,0.05748,0.01437,9.98005,-0.60305,-0.22901,-0.35878
43323,131,128,131,131,131,0,0.05748,-0.00240,10.01837,-0.58779,-0.11450,-0.38931
43444,131,128,131,131,131,0,0.02635,-0.00240,10.00400,-0.78626,-0.10687,-0.28244
43564,131,128,131,131,131,0,0.04551,0.01916,10.01118,-0.74046,-0.28244,-0.39695
43685,131,128,131,131,131,0,0.04790,-0.02635,9.98484,-0.56489,-0.12977,-0.35115
43805,131,128,131,131,131,0,0.06227,-0.00479,9.99442,-0.63359,-0.06870,-0.29008
43926,131,128,131,131,131,0,0.07664,0.00719,10.00400,-0.70992,-0.02290,-0.41985
44046,131,128,131,131,131,0,0.05988,-0.00719,9.98244,-0.78626,-0.09924,-0.39695
44167,131,128,131,131,131,0,0.04072,0.02874,10.03034,-0.67939,-0.01527,-0.25954
44288,131,128,131,131,131,0,0.05030,0.02874,10.05669,-0.78626,-0.09924,-0.32824
44408,131,128,131,131,131,0,0.06706,0.03593,10.01118,-0.73282,-0.13740,-0.24427
44529,131,128,131,131,131,0,0.04790,-0.04072,10.01597,-0.69466,-0.21374,-0.38931
44649,131,128,131,131,131,0,0.02635,0.00240,9.99681,-0.80153,-0.15267,-0.34351
44770,131,128,131,131,131,0,0.02874,0.03114,9.98723,-0.77863,-0.12214,-0.42748
44890,131,128,131,131,131,0,0.03832,-0.00719,10.01118,-0.75573,-0.29771,-0.44275
45011,131,128,131,131,131,0,0.02156,-0.00719,9.98963,-0.64885,-0.22901,-0.33588
45131,131,128,131,131,131,0,0.05509,0.00000,10.00160,-0.58779,-0.21374,-0.25191
45252,131,128,131,131,131,0,0.04790,0.00240,10.00400,-0.64885,-0.16031,-0.33588
45372,131,128,131,131,131,0,0.02156,0.00240,9.98484,-0.64122,-0.12977,-0.29771
45493,131,128,131,131,131,0,0.04790,-0.00958,10.03034,-0.68702,-0.11450,-0.25954
45613,131,128,131,131,131,0,0.05748,0.00240,9.98484,-0.77863,-0.03053,-0.38931
45734,131,128,131,131,131,0,0.05748,0.01437,10.00160,-0.65649,-0.18321,-0.34351
45855,131,128,131,131,131,0,0.04311,-0.01916,10.01837,-0.70992,-0.12977,-0.30534
45975,131,128,131,131,131,0,0.04311,0.01677,10.01118,-0.90840,-0.18321,-0.25954
46096,131,128,131,131,131,0,0.05030,0.01916,10.01118,-0.60305,-0.12977,-0.26718
46216,131,128,131,131,131,0,0.02156,0.00958,10.01118,-0.61832,-0.16794,-0.35878
46337,131,128,131,131,131,0,0.02635,-0.00479,10.02555,-0.63359,-0.21374,-0.32061
46457,131,128,131,131,131,0,0.02156,-0.00719,10.03274,-0.74809,-0.16031,-0.31298
46578,131,128,131,131,131,0,0.03114,0.00240,10.00639,-0.75573,-0.29771,-0.23664
46698,131,128,131,131,131,0,0.05269,-0.00479,9.99921,-0.86260,-0.24427,-0.45038
46819,131,128,131,131,131,0,0.03832,0.02874,10.00639,-0.71756,-0.17557,-0.32824
46939,131,128,131,131,131,0,0.05509,0.03593,10.01118,-0.69466,-0.12977,-0.34351
47060,131,128,131,131,131,0,0.05269,-0.01198,10.02076,-0.76336,-0.19847,-0.30534
47180,131,128,131,131,131,0,0.02635,0.00958,9.98005,-0.61069,-0.14504,-0.30534
47301,131,128,131,131,131,0,0.03832,-0.02874,9.99921,-0.83206,-0.25954,-0.19847
47422,131,128,131,131,131,0,0.04790,0.01198,9.99442,-0.69466,-0.17557,-0.32824
47542,131,128,131,131,131,0,0.04311,-0.00479,10.03034,-0.76336,-0.11450,-0.38168
47663,131,128,131,131,131,0,0.05748,-0.01437,9.98484,-0.77099,-0.13740,-0.30534
47783,131,128,131,131,131,0,0.04790,-0.01437,10.00160,-0.70992,-0.32824,-0.31298
47904,131,128,131,131,131,0,0.01677,0.00958,9.97765,-0.61069,-0.16794,-0.41221
48024,131,128,131,131,131,0,0.04072,-0.03353,9.98484,-0.83206,-0.27481,-0.33588
48145,131,128,131,131,131,0,0.05509,0.02156,9.99921,-0.77863,-0.26718,-0.45802
48265,131,128,131,131,131,0,0.02156,0.00000,9.98484,-0.75573,-0.22137,-0.33588
48386,131,128,131,131,131,0,0.01437,0.02156,10.03753,-0.74809,-0.11450,-0.47328
48506,131,128,131,131,131,0,0.04790,0.00479,9.99442,-0.68702,-0.20611,-0.32061
48627,131,128,131,131,131,0,0.03593,0.02635,9.99921,-0.65649,-0.25191,-0.31298
48747,131,128,131,131,131,0,0.03353,-0.02156,9.99202,-0.74046,-0.23664,-0.31298
48868,131,128,131,131,131,0,0.04072,0.00000,10.01837,-0.64885,-0.22137,-0.35115
48989,131,128,131,131,131,0,0.02395,0.00240,10.00400,-0.77099,-0.03053,-0.32061
49109,131,128,131,131,131,0,0.04311,-0.00240,10.01837,-0.79389,-0.01527,-0.25191
49230,131,128,131,131,131,0,0.02156,-0.01437,10.02076,-0.71756,-0.13740,-0.39695
49350,131,128,131,131,131,0,0.02395,-0.01677,10.00639,-0.67176,-0.09924,-0.56489
49471,131,128,131,131,131,0,0.01437,0.00000,10.01118,-0.61832,-0.22137,-0.32824
49591,131,128,131,131,131,0,0.03114,-0.00719,9.99681,-0.71756,-0.13740,-0.36641
49712,131,128,131,131,131,0,0.04072,-0.00240,10.00400,-0.64885,-0.07634,-0.17557
49832,131,128,131,131,131,0,0.02874,0.02156,9.99681,-0.73282,-0.10687,-0.29008
49953,131,128,131,131,131,0,0.01916,-0.01437,9.99202,-0.83206,-0.32061,-0.26718
50073,131,128,131,131,131,0,0.02874,0.03353,9.98484,-0.60305,-0.13740,-0.36641
50194,131,128,131,131,131,0,0.05269,0.00000,10.02555,-0.64885,-0.16794,-0.22137
50315,131,128,131,131,131,0,0.03832,0.01677,9.98723,-0.58015,-0.08397,-0.41985
50435,131,128,131,131,131,0,0.04790,0.01677,9.97526,-0.68702,-0.06870,-0.35878
50556,131,128,131,131,131,0,0.04551,0.00719,9.99202,-0.74809,-0.09160,-0.40458
50676,131,128,131,131,131,0,0.01916,0.01198,10.00879,-0.68702,-0.09160,-0.35878
50797,131,128,131,131,131,0,0.02874,0.00479,10.01597,-0.62595,-0.12977,-0.37405
50917,131,128,131,131,131,0,0.03593,-0.00240,9.99921,-0.67939,-0.19084,-0.25191
51038,131,128,131,131,131,0,0.03832,0.00479,10.00879,-0.74809,-0.22901,-0.29771
51158,131,128,131,131,131,0,0.04072,-0.00719,9.99442,-0.62595,0.04580,-0.33588
51279,131,128,131,131,131,0,0.05988,0.00479,10.01837,-0.51908,0.00000,-0.38168
51399,131,128,131,131,131,0,0.03593,-0.00479,10.03034,-0.66412,-0.12977,-0.46565
51520,131,128,131,131,131,0,0.01916,0.00240,10.01358,-0.65649,-0.12977,-0.48855
51640,131,128,131,131,131,0,0.02635,-0.00958,9.99921,-0.77863,-0.12977,-0.33588
51761,131,128,131,131,131,0,0.01677,-0.02635,9.99202,-0.70992,-0.14504,-0.31298
51882,131,128,131,131,131,0,0.01198,0.00719,9.99442,-0.67939,-0.30534,-0.39695
52002,131,128,131,131,131,0,0.07185,0.01198,9.99681,-0.85496,-0.20611,-0.28244
52123,131,128,131,131,131,0,0.01677,-0.03832,10.01597,-0.73282,-0.00763,-0.33588
52243,131,128,131,131,131,0,0.02635,0.00479,10.01118,-0.71756,-0.10687,-0.44275
52364,131,128,131,131,131,0,0.02156,0.05030,10.00879,-0.67176,-0.15267,-0.34351
52484,131,128,131,131,131,0,0.04072,-0.00958,10.03992,-0.64122,-0.19084,-0.39695
52605,131,128,131,131,131,0,0.05509,-0.02874,9.99681,-0.80153,-0.09160,-0.48855
52725,131,128,131,131,131,0,0.07664,-0.00719,10.00400,-0.58015,-0.17557,-0.39695
52846,131,128,131,131,131,0,0.01677,0.00240,10.00400,-0.80153,-0.18321,-0.29008
52966,131,128,131,131,131,0,0.03353,-0.00958,10.02795,-0.81679,-0.24427,-0.27481
53087,131,128,131,131,131,0,0.04311,-0.01437,10.01837,-0.76336,-0.06107,-0.18321
53207,131,128,131,131,131,0,0.00719,0.00000,10.01118,-0.61069,-0.19084,-0.31298
53328,131,128,131,131,131,0,0.01916,0.03114,9.98963,-0.87786,-0.21374,-0.33588
53449,131,128,131,131,131,0,0.03353,0.00958,10.01358,-0.59542,-0.12977,-0.41221
53569,131,128,131,131,131,0,0.03353,0.01916,9.99681,-0.78626,-0.10687,-0.28244
53690,131,128,131,131,131,0,0.03832,0.01677,10.00639,-0.77099,-0.12977,-0.31298
53810,131,128,131,131,131,0,0.05988,-0.00719,10.00879,-0.74809,-0.07634,-0.37405
53931,131,128,131,131,131,0,0.03593,0.00000,9.99442,-0.61832,-0.07634,-0.21374
54051,131,128,131,131,131,0,0.04790,-0.00958,10.00639,-0.68702,-0.12214,-0.38931
54172,131,128,131,131,131,0,0.03593,0.01437,10.01118,-0.77863,-0.16031,-0.29008
54292,131,128,131,131,131,0,0.03593,-0.01916,9.98484,-0.77099,-0.17557,-0.25191
54413,131,128,131,131,131,0,0.03593,0.00958,10.00879,-0.82443,-0.22137,-0.42748
54533,131,128,131,131,131,0,0.06227,0.01198,9.99681,-0.78626,-0.06870,-0.28244
54654,131,128,131,131,131,0,0.05509,-0.00719,9.99681,-0.78626,-0.25954,-0.47328
54774,131,128,131,131,131,0,0.02874,0.00000,9.99681,-0.71756,-0.14504,-0.29008
54895,131,128,131,131,131,0,0.02635,0.00719,9.99442,-0.78626,-0.30534,-0.34351
55016,131,128,131,131,131,0,0.02874,0.04072,10.02316,-0.65649,-0.22137,-0.37405
55136,131,128,131,131,131,0,0.03353,-0.00958,10.01837,-0.64122,-0.08397,-0.28244
55257,131,128,131,131,131,0,0.04551,-0.00479,9.98963,-0.76336,-0.13740,-0.29008
55377,131,128,131,131,131,0,0.02395,0.01677,10.00160,-0.73282,-0.18321,-0.33588
55498,131,128,131,131,131,0,0.03353,-0.00958,9.99921,-0.67176,-0.22901,-0.31298
55618,131,128,131,131,131,0,0.02156,0.03593,9.98963,-0.69466,-0.11450,-0.33588
55739,131,128,131,131,131,0,0.04311,0.01198,9.99921,-0.74046,-0.07634,-0.39695
55859,131,128,131,131,131,0,0.02635,-0.00240,10.01358,-0.72519,-0.09160,-0.43511
55980,131,128,131,131,131,0,0.01677,0.02395,10.01358,-0.70992,-0.27481,-0.25191
56100,131,128,131,131,131,0,0.04072,0.01677,9.99681,-0.74046,-0.18321,-0.23664
56221,131,128,131,131,131,0,0.06706,0.01198,10.00400,-0.80916,-0.08397,-0.33588
56342,131,128,131,131,131,0,0.00240,-0.01677,9.99681,-0.61832,-0.25954,-0.27481
56462,131,128,131,131,131,0,0.04790,-0.00958,9.98723,-0.68702,-0.05344,-0.25954
56583,131,128,131,131,131,0,0.05748,0.03114,9.99442,-0.89313,-0.16031,-0.35878
56703,131,128,131,131,131,0,0.05988,-0.01916,10.01837,-0.64122,0.01527,-0.37405
56824,131,128,131,131,131,0,0.00719,-0.02874,10.00639,-0.57252,-0.21374,-0.41221
56944,131,128,131,131,131,0,0.01916,0.03114,9.99442,-0.74809,-0.22901,-0.45802
57065,131,128,131,131,131,0,0.03353,0.00958,9.99442,-0.70229,-0.13740,-0.24427
57185,131,128,131,131,131,0,0.02874,-0.00719,10.00639,-0.67176,-0.25954,-0.39695
57306,131,128,131,131,131,0,0.03832,-0.01198,10.01837,-0.67939,-0.13740,-0.30534
57426,131,128,131,131,131,0,0.05030,-0.01916,10.00879,-0.80153,-0.15267,-0.32824
57547,131,128,131,131,131,0,0.03114,0.00000,10.01358,-0.58015,-0.17557,-0.35115
57667,131,128,131,131,131,0,0.07425,0.01677,10.00639,-0.69466,-0.08397,-0.29008
57788,131,128,131,131,131,0,0.05269,-0.00958,9.98723,-0.58779,-0.05344,-0.37405
57909,131,128,131,131,131,0,0.06227,0.00240,10.01597,-0.80153,-0.33588,-0.31298
58029,131,128,131,131,131,0,0.02395,0.01198,9.99921,-0.66412,-0.14504,-0.30534
58150,131,128,131,131,131,0,0.05269,0.00240,9.99921,-0.67176,-0.16794,-0.36641
58270,131,128,131,131,131,0,0.05988,0.00958,10.02555,-0.67939,-0.19084,-0.36641
58391,131,128,131,131,131,0,0.04790,-0.00719,10.00639,-0.70229,0.00763,-0.16794
58511,131,128,131,131,131,0,0.04790,0.02395,10.01118,-0.66412,-0.22901,-0.39695
58632,131,128,131,131,131,0,0.03114,0.04551,10.01597,-0.65649,-0.28244,-0.27481
58752,131,128,131,131,131,0,0.05269,0.00240,9.98723,-0.52672,-0.21374,-0.22137
58873,131,128,131,131,131,0,0.05988,0.00719,9.98723,-0.68702,-0.00763,-0.27481
58993,131,128,131,131,131,0,0.00958,-0.00479,9.98484,-0.69466,-0.12977,-0.32824
59114,131,128,131,131,131,0,0.03114,-0.00479,10.00879,-0.85496,-0.09160,-0.38168
59234,131,128,131,131,131,0,0.04072,0.00000,10.01597,-0.65649,-0.06107,-0.29771
59355,131,128,131,131,131,0,0.02156,0.04311,9.98484,-0.63359,-0.22137,-0.42748
59476,131,128,131,131,131,0,0.03593,0.00958,10.01358,-0.73282,-0.27481,-0.34351
59596,131,128,131,131,131,0,0.03593,-0.01916,10.00639,-0.50382,-0.18321,-0.37405
59717,131,128,131,131,131,0,0.04551,0.01916,10.01358,-0.76336,-0.07634,-0.22901
59837,131,128,131,131,131,0,0.05748,-0.00479,10.01358,-0.71756,-0.14504,-0.33588
59958,131,128,131,131,131,0,0.00719,-0.01677,9.99681,-0.77863,-0.20611,-0.28244
60078,131,128,131,131,131,0,0.03114,0.00479,10.00639,-0.67939,-0.29008,-0.35878
60199,131,128,131,131,131,0,0.03353,-0.00240,10.01597,-0.67176,-0.12977,-0.47328
60319,131,128,131,131,131,0,0.05509,-0.00719,9.99681,-0.79389,-0.32061,-0.35115
60440,131,128,131,131,131,0,0.03593,0.00240,9.98963,-0.57252,-0.08397,-0.33588
60560,131,128,131,131,131,0,0.05509,0.01437,10.01358,-0.70229,-0.08397,-0.26718
60681,131,128,131,131,131,0,0.04551,-0.00958,10.00639,-0.76336,-0.19847,-0.36641
60802,131,128,131,131,131,0,0.02156,0.02395,9.98963,-0.77099,-0.15267,-0.29008
60922,131,128,131,131,131,0,0.03114,0.00000,10.01118,-0.65649,-0.23664,-0.45802
61043,131,128,131,131,131,0,0.03832,0.01198,9.99921,-0.79389,-0.20611,-0.33588
61163,131,128,131,131,131,0,0.04790,0.04072,9.98723,-0.63359,-0.06107,-0.25954
61284,131,128,131,131,131,0,0.03114,-0.01198,9.99921,-0.78626,-0.23664,-0.36641
61404,131,128,131,131,131,0,0.00479,-0.03114,10.02316,-0.71756,-0.24427,-0.35878
61525,131,128,131,131,131,0,0.01677,0.00958,10.03034,-0.71756,-0.06107,-0.35115
61645,131,128,131,131,131,0,0.03114,-0.00240,10.01118,-0.68702,-0.16031,-0.27481
61766,131,128,131,131,131,0,0.04790,0.01916,9.98484,-0.75573,-0.25191,-0.32824
61886,131,128,131,131,131,0,0.06706,0.00958,9.98963,-0.61832,-0.22137,-0.28244
62007,131,128,131,131,131,0,0.05030,-0.01437,10.00639,-0.78626,-0.18321,-0.32061
62127,131,128,131,131,131,0,0.03114,0.01198,10.00160,-0.70992,-0.16794,-0.31298
62248,131,128,131,131,131,0,0.04790,-0.01916,9.99442,-0.79389,-0.13740,-0.29771
62369,131,128,131,131,131,0,0.01437,0.03114,9.99202,-0.77863,-0.24427,-0.38931
62489,131,128,131,131,131,0,0.05748,-0.04072,10.02795,-0.75573,-0.13740,-0.24427
62610,131,128,131,131,131,0,0.00958,0.00719,9.99681,-0.67939,-0.05344,-0.27481
62730,131,128,131,131,131,0,0.06227,-0.00240,10.00400,-0.62595,-0.12977,-0.39695
62851,131,128,131,131,131,0,0.00240,-0.02874,9.99681,-0.69466,-0.09924,-0.45802
62971,131,128,131,131,131,0,0.03114,0.01677,10.00639,-0.74809,-0.12214,-0.36641
63092,131,128,131,131,131,0,0.03832,-0.01916,9.97526,-0.79389,-0.15267,-0.35878
63212,131,128,131,131,131,0,0.08143,-0.01437,9.98963,-0.68702,-0.25191,-0.27481
63333,131,128,131,131,131,0,0.03593,0.03353,10.02795,-0.87786,-0.07634,-0.35115
63453,131,128,131,131,131,0,0.05269,-0.00240,10.00400,-0.65649,-0.23664,-0.31298
63574,131,128,131,131,131,0,0.03114,-0.02395,9.97047,-0.64122,-0.17557,-0.44275
63694,131,128,131,131,131,0,0.06227,-0.03353,10.01118,-0.64885,-0.21374,-0.41985
63815,131,128,131,131,131,0,0.05030,0.00479,10.01837,-0.74046,-0.03053,-0.40458
63936,131,128,131,131,131,0,0.04072,0.00240,10.00400,-0.77863,-0.11450,-0.17557
64056,131,128,131,131,131,0,0.05269,0.02395,9.96568,-0.58779,-0.16794,-0.40458
64177,131,128,131,131,131,0,0.05030,-0.01916,9.99921,-0.66412,-0.11450,-0.36641
64297,131,128,131,131,131,0,0.03593,0.00719,9.99921,-0.74809,-0.22901,-0.28244
64418,131,128,131,131,131,0,0.05269,-0.01677,9.99442,-0.80916,-0.15267,-0.28244
64538,131,128,131,131,131,0,0.07425,0.02395,10.00639,-0.76336,-0.12214,-0.25191
64659,131,128,131,131,131,0,0.03832,0.03114,9.99202,-0.70992,-0.26718,-0.33588
64779,131,128,131,131,131,0,0.03353,-0.00958,9.99442,-0.85496,-0.21374,-0.27481
64900,131,128,131,131,131,0,0.06227,-0.01437,10.01358,-0.75573,-0.20611,-0.32824
65020,131,128,131,131,131,0,0.04072,-0.03353,10.03513,-0.74809,-0.25954,-0.24427
65141,131,128,131,131,131,0,0.06227,0.00240,10.00160,-0.68702,-0.14504,-0.32824
65261,131,128,131,131,131,0,0.06227,0.02395,10.01118,-0.54962,-0.22137,-0.38931
65382,131,128,131,131,131,0,0.06467,0.02156,9.98963,-0.76336,-0.16031,-0.39695
65503,131,128,131,131,131,0,0.01437,-0.01198,10.00639,-0.72519,-0.15267,-0.31298
65623,131,128,131,131,131,0,0.04790,0.01677,9.99442,-0.71756,-0.16794,-0.19847
65744,131,128,131,131,131,0,0.01916,0.00000,10.02316,-0.67939,-0.23664,-0.41985
65864,131,128,131,131,131,0,0.02635,0.00958,10.01597,-0.74046,-0.13740,-0.23664
65985,131,128,131,131,131,0,0.02874,-0.00240,10.00879,-0.77863,-0.09160,-0.32824
66105,131,128,131,131,131,0,0.05269,0.02635,10.01118,-0.67939,-0.16794,-0.32061
66226,131,128,131,131,131,0,0.04311,0.00000,9.99202,-0.73282,-0.24427,-0.40458
66346,131,128,131,131,131,0,0.02874,0.00958,9.98484,-0.60305,-0.15267,-0.27481
66467,131,128,131,131,131,0,0.05509,0.01198,10.01358,-0.70229,-0.31298,-0.35878
66587,131,128,131,131,131,0,0.02395,-0.02635,9.99202,-0.80153,-0.03817,-0.38168
66708,131,128,131,131,131,0,0.01916,0.02156,10.01597,-0.73282,-0.22901,-0.32824
66829,131,128,131,131,131,0,0.04072,-0.00719,10.01358,-0.90840,-0.16794,-0.43511
66949,131,128,131,131,131,0,0.02874,0.01437,10.02076,-0.61832,-0.10687,-0.39695
67070,131,128,131,131,131,0,0.03832,-0.03114,9.99921,-0.75573,-0.09924,-0.40458
67190,131,128,131,131,131,0,0.03593,-0.00240,9.98005,-0.72519,-0.19847,-0.32061
67311,131,128,131,131,131,0,0.03114,0.00719,9.98244,-0.77863,0.04580,-0.39695
67431,131,128,131,131,131,0,0.01677,0.01198,10.00400,-0.77099,-0.18321,-0.44275
67552,131,128,131,131,131,0,0.03114,-0.04072,10.01118,-0.69466,-0.10687,-0.31298
67672,131,128,131,131,131,0,0.03593,-0.01198,10.02795,-0.66412,-0.30534,-0.41221
67793,131,128,131,131,131,0,0.02874,0.00719,9.99202,-0.60305,-0.18321,-0.42748
67913,131,128,131,131,131,0,0.05269,-0.00479,10.00160,-0.70992,-0.25191,-0.28244
68034,131,128,131,131,131,0,0.04790,0.00958,10.01358,-0.80916,-0.17557,-0.29771
68154,131,128,131,131,131,0,0.03832,0.01437,10.00160,-0.67176,-0.07634,-0.35878
68275,131,128,131,131,131,0,0.03353,0.00240,10.00639,-0.70229,-0.19084,-0.35878
68396,131,128,131,131,131,0,0.04072,0.00240,10.00160,-0.71756,-0.11450,-0.22901
68516,131,128,131,131,131,0,0.04790,0.00958,9.99442,-0.60305,-0.03053,-0.29008
68637,131,128,131,131,131,0,0.01677,-0.01198,10.00879,-0.58015,-0.10687,-0.28244
68757,131,128,131,131,131,0,-0.00240,0.01916,9.99442,-0.67939,-0.10687,-0.35878
68878,131,128,131,131,131,0,0.04311,-0.00719,9.99921,-0.56489,-0.15267,-0.45038
68998,131,128,131,131,131,0,0.04311,0.01916,10.00639,-0.70992,-0.12977,-0.38168
69119,131,128,131,131,131,0,0.04072,-0.00479,9.98723,-0.71756,-0.22901,-0.41221
69239,131,128,131,131,131,0,-0.00240,0.00958,10.01837,-0.56489,-0.14504,-0.24427
69360,131,128,131,131,131,0,0.05030,-0.01437,9.99681,-0.75573,-0.09924,-0.31298
69480,131,128,131,131,131,0,0.04551,0.00958,9.99921,-0.85496,-0.06107,-0.33588
69601,131,128,131,131,131,0,0.03832,-0.01677,9.99681,-0.67176,-0.07634,-0.44275
69721,131,128,131,131,131,0,0.05988,-0.02635,10.00160,-0.66412,-0.10687,-0.16794
69842,131,128,131,131,131,0,0.05988,0.01198,10.02316,-0.68702,-0.18321,-0.30534
69963,131,128,131,131,131,0,0.03593,0.00000,10.01358,-0.78626,-0.32824,-0.28244
70083,131,128,131,131,131,0,0.01916,0.01198,10.00639,-0.71756,-0.16031,-0.20611
70204,131,128,131,131,131,0,0.04790,0.01437,9.98484,-0.63359,-0.27481,-0.27481
70324,131,128,131,131,131,0,0.04072,0.00479,10.00879,-0.64122,-0.15267,-0.32824
70445,131,128,131,131,131,0,0.00000,0.00000,9.99921,-0.79389,-0.09160,-0.35115
70565,131,128,131,131,131,0,0.04790,-0.02156,10.02076,-0.67176,-0.15267,-0.38931
70686,131,128,131,131,131,0,0.04072,-0.00719,10.01358,-0.66412,-0.16794,-0.38168
70806,131,128,131,131,131,0,0.05030,-0.00240,10.01358,-0.80916,-0.14504,-0.21374
70927,131,128,131,131,131,0,0.03593,-0.02874,9.99681,-0.62595,-0.14504,-0.27481
71047,131,128,131,131,131,0,0.04072,-0.01677,10.00160,-0.67939,-0.25191,-0.24427
71168,131,128,131,131,131,0,0.03593,-0.00719,10.02795,-0.69466,-0.16031,-0.43511
71289,131,128,131,131,131,0,0.05748,-0.02156,10.00160,-0.77099,-0.13740,-0.24427
71409,131,128,131,131,131,0,0.04072,0.00958,10.00400,-0.70229,-0.03053,-0.38168
71530,131,128,131,131,131,0,0.05269,0.00958,10.01358,-0.75573,-0.06870,-0.39695
71650,131,128,131,131,131,0,0.05030,0.02395,10.00639,-0.70992,-0.19847,-0.47328
71771,131,128,131,131,131,0,0.07664,0.00719,10.01358,-0.70992,-0.07634,-0.34351
71891,131,128,131,131,131,0,0.07185,0.00240,10.00639,-0.82443,-0.13740,-0.32061
72012,131,128,131,131,131,0,0.03353,-0.00240,10.00879,-0.60305,0.09160,-0.29008
72132,131,128,131,131,131,0,0.04072,-0.00719,10.00160,-0.79389,-0.03817,-0.20611
72253,131,128,131,131,131,0,0.04311,0.00958,10.00160,-0.80916,-0.09924,-0.16031
72373,131,128,131,131,131,0,0.02874,-0.00240,10.01837,-0.74046,-0.22137,-0.45038
72494,131,128,131,131,131,0,0.03593,-0.00719,10.00639,-0.62595,-0.06870,-0.32824
72614,131,128,131,131,131,0,0.03114,0.00000,9.99202,-0.64885,-0.07634,-0.29771
72735,131,128,131,131,131,0,0.04311,0.01437,9.98723,-0.77863,-0.11450,-0.33588
72856,131,128,131,131,131,0,0.04790,-0.01916,10.00160,-0.73282,-0.19084,-0.24427
72976,131,128,131,131,131,0,0.05509,-0.00958,10.00400,-0.75573,-0.09160,-0.23664
73097,131,128,131,131,131,0,0.02395,0.00240,9.99681,-0.77863,-0.09924,-0.41985
73217,131,128,131,131,131,0,0.05269,0.01198,10.01118,-0.54962,-0.18321,-0.29771
73338,131,128,131,131,131,0,0.03353,0.00719,9.99921,-0.61832,-0.21374,-0.32824
73458,131,128,131,131,131,0,0.03593,-0.00240,9.98244,-0.62595,-0.06870,-0.37405
73579,131,128,131,131,131,0,0.04072,0.01437,9.99202,-0.68702,-0.26718,-0.26718
73699,131,128,131,131,131,0,0.03832,-0.00240,9.99681,-0.70229,-0.23664,-0.41985
73820,131,128,131,131,131,0,0.04790,0.00719,9.97765,-0.57252,-0.24427,-0.36641
73940,131,128,131,131,131,0,0.04551,0.01437,9.97526,-0.69466,-0.20611,-0.37405
74061,131,128,131,131,131,0,0.04072,0.00240,10.01358,-0.67939,-0.13740,-0.20611
74181,131,128,131,131,131,0,0.01677,0.00958,10.01118,-0.61069,0.01527,-0.41985
74302,131,128,131,131,131,0,0.03832,-0.00719,10.00400,-0.70229,-0.25954,-0.31298
74423,131,128,131,131,131,0,0.05748,0.02635,10.01358,-0.70992,-0.11450,-0.51145
74543,131,128,131,131,131,0,0.06467,0.00240,10.02076,-0.64122,-0.10687,-0.25954
74664,131,128,131,131,131,0,0.00719,-0.00719,9.99202,-0.64885,-0.25191,-0.11450
74784,131,128,131,131,131,0,0.07904,0.00000,10.01118,-0.64122,-0.07634,-0.23664
74905,131,128,131,131,131,0,0.03353,0.00240,9.99921,-0.61069,-0.11450,-0.29771
75025,131,128,131,131,131,0,0.03832,0.00240,10.01118,-0.87023,-0.22901,-0.43511
75146,131,128,131,131,131,0,0.06467,-0.04311,9.99442,-0.77099,-0.13740,-0.45038
75266,131,128,131,131,131,0,0.03353,-0.00719,10.01118,-0.70229,-0.12214,-0.32061
75387,131,128,131,131,131,0,0.01916,-0.03832,9.99442,-0.77099,-0.19847,-0.37405
75507,131,128,131,131,131,0,-0.00958,-0.01677,10.00160,-0.72519,-0.22901,-0.22901
75628,131,128,131,131,131,0,0.05269,0.02395,9.99202,-0.90840,-0.25191,-0.45802
75748,131,128,131,131,131,0,0.03114,0.01198,9.98484,-0.72519,-0.12214,-0.30534
75869,131,128,131,131,131,0,0.01198,-0.03353,10.00879,-0.65649,-0.06107,-0.38931
75990,131,128,131,131,131,0,0.02156,0.00958,9.98484,-0.60305,-0.16031,-0.40458
76110,131,128,131,131,131,0,0.03593,0.01916,10.00400,-0.69466,0.02290,-0.29008
76231,131,128,131,131,131,0,0.03832,-0.01437,10.03513,-0.65649,-0.07634,-0.32824
76351,131,128,131,131,131,0,0.03832,0.00719,9.99202,-0.73282,-0.12214,-0.36641
76472,131,128,131,131,131,0,0.03832,0.02395,9.99202,-0.67939,-0.18321,-0.39695
76592,131,128,131,131,131,0,0.05030,0.00958,9.98244,-0.69466,-0.09924,-0.29008
76713,131,128,131,131,131,0,0.01677,-0.01677,9.99921,-0.77863,-0.15267,-0.38168
76833,131,128,131,131,131,0,0.03593,0.01198,10.01597,-0.67939,-0.12977,-0.34351
76954,131,128,131,131,131,0,0.04551,0.00719,9.99921,-0.75573,-0.35115,-0.32061
77074,131,128,131,131,131,0,0.05509,0.00000,9.98723,-0.52672,-0.12214,-0.20611
77195,131,128,131,131,131,0,0.03353,-0.01437,9.99202,-0.77863,-0.24427,-0.33588
77316,131,128,131,131,131,0,0.03353,0.01198,9.99681,-0.71756,-0.29008,-0.37405
77436,131,128,131,131,131,0,0.02156,-0.01198,9.99442,-0.73282,-0.22901,-0.37405
77557,131,128,131,131,131,0,0.03114,0.00479,10.02555,-0.77863,-0.22137,-0.21374
77677,131,128,131,131,131,0,0.02635,0.00000,10.02795,-0.66412,-0.02290,-0.37405
77798,131,128,131,131,131,0,0.03353,0.00719,9.99921,-0.75573,-0.12214,-0.36641
77918,131,128,131,131,131,0,0.03593,-0.00240,10.03034,-0.68702,-0.00763,-0.25191
78039,131,128,131,131,131,0,0.03593,0.02156,9.98723,-0.77099,-0.12977,-0.19084
78159,131,128,131,131,131,0,0.02635,-0.00958,10.00160,-0.77863,-0.22137,-0.25954
78280,131,128,131,131,131,0,0.02395,0.00479,10.02076,-0.76336,-0.19084,-0.32061
78400,131,128,131,131,131,0,0.02156,0.00958,10.02076,-0.63359,-0.13740,-0.35115
78521,131,128,131,131,131,0,0.01916,-0.00958,9.99202,-0.68702,-0.09924,-0.29771
78641,131,128,131,131,131,0,0.03593,0.00240,9.98723,-0.67176,-0.24427,-0.25954
78762,131,128,131,131,131,0,0.01916,-0.00479,10.00400,-0.73282,-0.14504,-0.36641
78883,131,128,131,131,131,0,0.04551,0.00479,10.00639,-0.66412,-0.22137,-0.28244
79003,131,128,131,131,131,0,0.05030,0.01916,9.99202,-0.82443,-0.16794,-0.36641
79124,131,128,131,131,131,0,0.03593,0.02635,9.99442,-0.87786,-0.06107,-0.42748
79244,131,128,131,131,131,0,0.07185,0.01437,10.01597,-0.75573,-0.25954,-0.34351
79365,131,128,131,131,131,0,0.04551,0.01437,9.98005,-0.64885,-0.06107,-0.39695
79485,131,128,131,131,131,0,0.04311,-0.01677,10.02076,-0.64885,-0.14504,-0.41985
79606,131,128,131,131,131,0,0.00000,-0.00479,9.98723,-0.74809,-0.16794,-0.23664
79726,131,128,131,131,131,0,0.04311,0.00958,9.99681,-0.74809,-0.16794,-0.38168
79847,131,128,131,131,131,0,0.02635,-0.00719,10.00879,-0.65649,0.08397,-0.24427
79967,131,128,131,131,131,0,0.04790,0.00719,9.99442,-0.60305,-0.03817,-0.25191
80088,131,128,131,131,131,0,0.06227,-0.02635,9.99681,-0.69466,-0.17557,-0.27481
80208,131,128,131,131,131,0,0.05988,-0.02874,10.00400,-0.75573,-0.25191,-0.31298
80329,131,128,131,131,131,0,0.06467,0.02156,10.01837,-0.67939,-0.21374,-0.44275
80450,131,128,131,131,131,0,0.03114,-0.00479,10.01358,-0.64122,-0.00763,-0.30534
80570,131,128,131,131,131,0,0.03832,-0.00240,9.99921,-0.63359,-0.19084,-0.24427
80691,131,128,131,131,131,0,0.06227,0.00240,10.00639,-0.66412,-0.00763,-0.32824
80811,131,128,131,131,131,0,0.05988,-0.00958,10.00160,-0.77863,-0.25954,-0.37405
80932,131,128,131,131,131,0,0.05269,-0.00479,10.00400,-0.70992,-0.09924,-0.31298
81052,131,128,131,131,131,0,0.06706,-0.01437,10.01118,-0.74046,-0.07634,-0.32824
81173,131,128,131,131,131,0,0.02635,0.04072,9.99921,-0.83206,-0.28244,-0.31298
81293,131,128,131,131,131,0,0.04551,0.02395,10.02316,-0.79389,-0.11450,-0.40458
81414,131,128,131,131,131,0,0.01677,0.00958,9.99202,-0.75573,-0.05344,-0.22901
81534,131,128,131,131,131,0,0.04551,0.03832,9.99681,-0.73282,-0.25191,-0.25191
81655,131,128,131,131,131,0,0.03593,0.00000,10.00400,-0.74046,-0.05344,-0.32824
81775,131,128,131,131,131,0,0.02635,0.00719,10.00400,-0.68702,0.07634,-0.37405
81896,131,128,131,131,131,0,0.05748,0.02395,9.99921,-0.59542,-0.13740,-0.23664
82017,131,128,131,131,131,0,0.02635,-0.00719,10.00879,-0.55725,-0.16031,-0.32824
82137,131,128,131,131,131,0,0.01198,-0.02156,10.00639,-0.70992,-0.12214,-0.45038
82258,131,128,131,131,131,0,0.05509,0.02156,10.00160,-0.84733,-0.20611,-0.40458
82378,131,128,131,131,131,0,0.06227,0.01198,10.01118,-0.69466,-0.12214,-0.27481
82499,131,128,131,131,131,0,0.04551,0.01677,9.99681,-0.71756,-0.08397,-0.22901
82619,131,128,131,131,131,0,0.04311,-0.00958,9.98484,-0.79389,-0.19847,-0.35115
82740,131,128,131,131,131,0,0.03832,-0.02156,9.99921,-0.64885,-0.19084,-0.33588
82860,131,128,131,131,131,0,0.00479,0.01198,9.99202,-0.74046,-0.16794,-0.26718
82981,131,128,131,131,131,0,0.06227,-0.00958,9.99921,-0.64122,-0.20611,-0.29008
83101,131,128,131,131,131,0,0.01677,-0.00479,9.99921,-0.84733,-0.07634,-0.42748
83222,131,128,131,131,131,0,0.04551,-0.00958,10.01118,-0.80153,-0.09160,-0.33588
83343,131,128,131,131,131,0,0.05988,-0.02874,10.00160,-0.75573,-0.23664,-0.18321
83463,131,128,131,131,131,0,0.04311,0.03114,9.98723,-0.81679,-0.10687,-0.34351
83584,131,128,131,131,131,0,0.03353,-0.00240,9.99442,-0.61069,-0.17557,-0.29008
83704,131,128,131,131,131,0,0.02395,0.00000,10.00400,-0.71756,-0.12977,-0.31298
83825,131,128,131,131,131,0,0.03832,-0.01437,9.98005,-0.68702,-0.16031,-0.17557
83945,131,128,131,131,131,0,0.03832,0.02395,10.01358,-0.80153,-0.22901,-0.30534
84066,131,128,131,131,131,0,0.03353,0.01437,10.01358,-0.57252,-0.14504,-0.35878
84186,131,128,131,131,131,0,0.04072,0.01677,10.01597,-0.64885,-0.18321,-0.41221
84307,131,128,131,131,131,0,0.06227,0.01437,10.00400,-0.80916,-0.05344,-0.48092
84427,131,128,131,131,131,0,0.03593,-0.03114,10.01118,-0.67176,-0.06870,-0.32061
84548,131,128,131,131,131,0,0.05269,0.01198,10.00879,-0.73282,-0.03817,-0.40458
84668,131,128,131,131,131,0,0.01916,0.01437,10.00160,-0.80153,-0.17557,-0.34351
84789,131,128,131,131,131,0,0.05030,0.00000,9.97526,-0.79389,-0.07634,-0.29008
84910,131,128,131,131,131,0,0.06227,0.00240,10.01118,-0.54962,-0.09160,-0.33588
85030,131,128,131,131,131,0,0.04790,0.01198,10.00639,-0.70992,-0.22137,-0.33588
85151,131,128,131,131,131,0,0.03353,0.01437,9.99921,-0.57252,-0.06107,-0.45802
85271,131,128,131,131,131,0,0.05988,-0.01437,9.99202,-0.66412,-0.17557,-0.29008
85392,131,128,131,131,131,0,0.02635,0.02874,9.97765,-0.69466,-0.12214,-0.32824
85512,131,128,131,131,131,0,0.05748,-0.00719,9.99442,-0.70229,-0.27481,-0.29771
85633,131,128,131,131,131,0,0.04790,0.00479,9.99681,-0.71756,-0.11450,-0.32824
85753,131,128,131,131,131,0,0.02874,0.02156,10.01358,-0.69466,-0.29008,-0.50382
85874,131,128,131,131,131,0,0.05509,0.00240,10.01118,-0.62595,-0.09924,-0.43511
85994,131,128,131,131,131,0,0.02874,-0.03114,9.99681,-0.61069,-0.15267,-0.33588
86115,131,128,131,131,131,0,0.01198,-0.02635,9.99681,-0.80916,-0.07634,-0.38168
86235,131,128,131,131,131,0,0.03593,-0.00958,10.02795,-0.80153,-0.16031,-0.31298
86356,131,128,131,131,131,0,0.02635,0.00000,9.99681,-0.62595,-0.28244,-0.33588
86477,131,128,131,131,131,0,0.05269,-0.00240,10.01597,-0.61069,-0.11450,-0.32061
86597,131,128,131,131,131,0,0.06227,0.00240,10.02316,-0.76336,-0.19847,-0.31298
86718,131,128,131,131,131,0,0.02395,0.00479,9.99681,-0.70229,-0.15267,-0.38931
86838,131,128,131,131,131,0,0.04790,0.00479,9.98005,-0.77099,-0.13740,-0.42748
86959,131,128,131,131,131,0,0.05988,0.02635,10.02076,-0.67176,-0.13740,-0.28244
87079,131,128,131,131,131,0,0.01198,-0.02874,9.97765,-0.72519,-0.20611,-0.35115
87200,131,128,131,131,131,0,0.00240,-0.00719,10.01118,-0.90076,-0.15267,-0.27481
87320,131,128,131,131,131,0,0.02635,0.02156,10.00160,-0.57252,-0.21374,-0.37405
87441,131,128,131,131,131,0,0.04311,-0.00479,10.01358,-0.55725,-0.17557,-0.38931
87561,131,128,131,131,131,0,0.02874,0.00958,10.01597,-0.71756,-0.19084,-0.34351
87682,131,128,131,131,131,0,0.05509,0.00240,10.00160,-0.70992,-0.06870,-0.37405
87803,131,128,131,131,131,0,0.04311,-0.00479,10.00400,-0.74809,-0.20611,-0.30534
87923,131,128,131,131,131,0,0.05030,0.04072,10.01597,-0.83969,-0.12977,-0.35878
88044,131,128,131,131,131,0,0.02874,0.02156,9.97526,-0.67176,-0.19847,-0.29771
88164,131,128,131,131,131,0,0.05988,0.01198,10.00639,-0.83206,-0.09924,-0.26718
88285,131,128,131,131,131,0,0.02395,-0.01437,10.00400,-0.70992,-0.16794,-0.31298
88405,131,128,131,131,131,0,0.03353,0.00240,10.01118,-0.73282,-0.19847,-0.35878
88526,131,128,131,131,131,0,0.02156,0.00719,10.01118,-0.65649,-0.20611,-0.40458
