Timestamp,Throttle,Roll,Pitch,Yaw,KillSwitch,Emergency,Ax_ms2,Ay_ms2,Az_ms2,Gx_rps,Gy_rps,Gz_rps,Ref_Roll,Ref_Pitch,Ref_YawRate
# Flight Data Log - Single Flight Mode
# Generated by Starship Hand Controller
# Timestamp: milliseconds since loop start (flight time)
# Control values: 0-255 (127=center)
# Emergency: 1=active, 0=normal
# File overwrites on each restart
# ========================
2338,,,,,,,, # System startup - Hand Controller initialized
20174,,,,,,,, # Flight started - Loop timestamp zero point set
0,0,0.00,0.00,0.00,255,0,0.00000,0.00000,0.00000,0.00000,0.00000,0.00000,0.00000,0.00000,0.00000
10,0,0.00,0.00,0.00,255,0,0.00000,0.00000,0.00000,0.00000,0.00000,0.00000,0.00000,0.00000,0.00000
20,0,0.08,0.08,-0.01,255,0,0.06227,0.23950,10.01358,-0.01079,-0.02518,0.00933,0.00000,0.00000,0.00000
30,0,0.01,-0.02,-0.02,255,0,0.08143,0.23471,10.03034,-0.00879,-0.02491,0.01026,0.00000,0.00000,0.00000
40,0,0.10,0.05,-0.03,255,0,0.05509,0.28022,10.05429,-0.01239,-0.02625,0.01159,0.00000,0.00000,0.00000
50,0,0.00,-0.01,-0.03,255,0,0.07185,0.23471,10.02316,-0.01159,-0.02625,0.00893,0.00000,0.00000,0.00000
60,0,0.11,0.03,-0.04,255,0,0.08383,0.23232,9.99442,-0.01119,-0.02571,0.01159,0.00000,0.00000,0.00000
70,0,0.01,0.06,-0.05,255,0,0.04311,0.24669,10.02076,-0.01292,-0.02745,0.01013,0.00000,0.00000,0.00000
80,0,0.08,-0.03,-0.06,255,0,0.11496,0.24429,10.02316,-0.01053,-0.02518,0.00813,0.00000,0.00000,0.00000
90,0,-0.03,-0.00,-0.07,255,0,0.07904,0.22753,10.03753,-0.00813,-0.02758,0.00879,0.00000,0.00000,0.00000
100,0,0.09,-0.00,-0.08,255,0,0.05509,0.24429,10.03513,-0.01372,-0.02705,0.01106,0.00000,0.00000,0.00000
110,0,-0.03,-0.02,-0.08,255,0,0.07664,0.24669,10.03034,-0.01119,-0.02585,0.00893,0.00000,0.00000,0.00000
120,0,0.09,-0.03,-0.09,255,0,0.08383,0.22274,10.03274,-0.01013,-0.02611,0.01026,0.00000,0.00000,0.00000
130,0,-0.02,0.00,-0.10,255,0,0.06706,0.23232,10.04471,-0.00973,-0.02878,0.01226,0.00000,0.00000,0.00000
140,0,0.08,-0.05,-0.11,255,0,0.08862,0.24190,10.05669,-0.01399,-0.02558,0.01279,0.00000,0.00000,0.00000
150,0,-0.01,0.00,-0.12,255,0,0.07425,0.23711,10.03753,-0.01119,-0.02691,0.01092,0.00000,0.00000,0.00000
160,0,0.06,-0.09,-0.13,255,0,0.09580,0.22992,10.04950,-0.01159,-0.02971,0.01053,0.00000,0.00000,0.00000
170,0,-0.04,-0.04,-0.14,255,0,0.09101,0.21555,10.03992,-0.01279,-0.02531,0.00999,0.00000,0.00000,0.00000
180,0,0.05,-0.12,-0.15,255,0,0.10299,0.23711,10.02555,-0.01306,-0.02958,0.00999,0.00000,0.00000,0.00000
190,0,-0.02,-0.04,-0.16,255,0,0.08862,0.24190,10.03034,-0.01106,-0.02678,0.01039,0.00000,0.00000,0.00000
200,0,0.05,-0.13,-0.17,255,0,0.07664,0.22513,10.04232,-0.01212,-0.02358,0.01039,0.00000,0.00000,0.00000
210,0,0.05,-0.02,-0.18,255,0,0.10059,0.26824,10.03274,-0.01159,-0.02691,0.01292,0.00000,0.00000,0.00000
220,0,0.10,-0.13,-0.18,255,0,0.08862,0.27303,10.02076,-0.01132,-0.02758,0.01053,0.00000,0.00000,0.00000
230,0,-0.00,-0.10,-0.19,255,0,0.11496,0.25387,10.02555,-0.01266,-0.02625,0.00893,0.00000,0.00000,0.00000
240,0,0.11,-0.12,-0.20,255,0,0.08622,0.28022,10.00879,-0.01399,-0.02638,0.01026,0.00000,0.00000,0.00000
250,0,0.19,-0.21,-0.21,255,0,0.12215,0.25866,10.06148,-0.01306,-0.02611,0.01119,0.00000,0.00000,0.00000
260,0,0.10,-0.14,-0.22,255,0,0.07904,0.22753,10.04711,-0.01466,-0.02811,0.01239,0.00000,0.00000,0.00000
270,0,0.16,-0.04,-0.23,255,0,0.06946,0.26106,10.04950,-0.01226,-0.02265,0.01066,0.00000,0.00000,0.00000
280,0,0.10,-0.14,-0.24,255,0,0.12215,0.23232,10.04232,-0.01279,-0.02505,0.00959,0.00000,0.00000,0.00000
290,0,0.19,-0.07,-0.25,255,0,0.08862,0.25866,10.03513,-0.01545,-0.02625,0.01079,0.00000,0.00000,0.00000
300,0,0.08,-0.13,-0.26,255,0,0.07904,0.23471,10.01597,-0.01532,-0.02372,0.01399,0.00000,0.00000,0.00000
310,0,0.18,-0.08,-0.27,255,0,0.09341,0.24908,10.01358,-0.01466,-0.02425,0.01332,0.00000,0.00000,0.00000
320,0,0.08,-0.14,-0.28,255,0,0.09820,0.25387,10.03034,-0.01292,-0.02398,0.01226,0.00000,0.00000,0.00000
330,0,0.20,-0.13,-0.29,255,0,0.10299,0.25627,10.02316,-0.01386,-0.02598,0.01172,0.00000,0.00000,0.00000
340,0,0.09,-0.17,-0.30,255,0,0.11257,0.24429,10.03034,-0.01279,-0.02398,0.01279,0.00000,0.00000,0.00000
350,0,-0.02,-0.12,-0.31,255,0,0.10299,0.22513,10.03034,-0.01519,-0.02278,0.01132,0.00000,0.00000,0.00000
360,0,0.08,-0.19,-0.32,255,0,0.11975,0.24669,10.02316,-0.01532,-0.02212,0.01266,0.00000,0.00000,0.00000
370,0,0.01,-0.10,-0.33,255,0,0.08622,0.22753,10.03992,-0.01359,-0.02425,0.01159,0.00000,0.00000,0.00000
380,0,0.10,-0.17,-0.33,255,0,0.07425,0.23711,10.03513,-0.01399,-0.02425,0.01013,0.00000,0.00000,0.00000
390,0,0.00,-0.11,-0.34,255,0,0.08862,0.22753,10.02316,-0.01572,-0.02265,0.00959,0.00000,0.00000,0.00000
400,0,0.11,-0.16,-0.35,255,0,0.09101,0.24669,10.00639,-0.01306,-0.02185,0.01132,0.00000,0.00000,0.00000
410,0,-0.01,-0.15,-0.36,255,0,0.11496,0.23711,10.04471,-0.01252,-0.02038,0.01039,0.00000,0.00000,0.00000
420,0,0.11,-0.17,-0.37,255,0,0.10538,0.24190,10.01118,-0.01625,-0.02078,0.01092,0.00000,0.00000,0.00000
430,0,-0.01,-0.16,-0.38,255,0,0.10059,0.23950,10.03513,-0.01346,-0.02078,0.01146,0.00000,0.00000,0.00000
440,0,0.10,-0.18,-0.39,255,0,0.10059,0.23950,10.01837,-0.01545,-0.02118,0.01026,0.00000,0.00000,0.00000
450,0,-0.00,-0.13,-0.40,255,0,0.08862,0.23950,10.06866,-0.01492,-0.02012,0.01066,0.00000,0.00000,0.00000
460,0,0.11,-0.13,-0.41,255,0,0.07904,0.24908,10.04950,-0.01452,-0.02198,0.00973,0.00000,0.00000,0.00000
470,0,-0.00,-0.14,-0.42,255,0,0.09820,0.23950,10.06148,-0.01466,-0.01759,0.01026,0.00000,0.00000,0.00000
480,0,0.11,-0.15,-0.42,255,0,0.10059,0.23950,10.03513,-0.01545,-0.02065,0.00919,0.00000,0.00000,0.00000
490,0,-0.01,-0.12,-0.43,255,0,0.09101,0.25387,10.03992,-0.01705,-0.01879,0.01266,0.00000,0.00000,0.00000
500,0,0.10,-0.17,-0.44,255,0,0.10778,0.23950,10.07345,-0.01386,-0.01825,0.00826,0.00000,0.00000,0.00000
510,0,-0.02,-0.16,-0.45,255,0,0.10778,0.23471,10.00639,-0.01452,-0.01705,0.00959,0.00000,0.00000,0.00000
520,0,0.10,-0.18,-0.46,255,0,0.10299,0.23232,10.02795,-0.01452,-0.01825,0.00933,0.00000,0.00000,0.00000
530,0,-0.00,-0.11,-0.47,255,0,0.06467,0.21555,10.03034,-0.01559,-0.01506,0.01119,0.00000,0.00000,0.00000
540,0,0.07,-0.20,-0.48,255,0,0.10059,0.23232,10.04711,-0.01332,-0.01772,0.01119,0.00000,0.00000,0.00000
550,0,0.01,-0.10,-0.48,255,0,0.09820,0.25148,10.00400,-0.01599,-0.01625,0.00866,0.00000,0.00000,0.00000
560,0,0.10,-0.17,-0.49,255,0,0.08383,0.24669,10.03034,-0.01372,-0.01639,0.01106,0.00000,0.00000,0.00000
570,0,0.00,-0.11,-0.50,255,0,0.09820,0.22992,10.03753,-0.01665,-0.01599,0.01159,0.00000,0.00000,0.00000
580,0,0.10,-0.17,-0.51,255,0,0.10059,0.24429,10.04471,-0.01479,-0.01532,0.01079,0.00000,0.00000,0.00000
590,0,0.00,-0.11,-0.52,255,0,0.09341,0.24190,10.00879,-0.01639,-0.01426,0.00933,0.00000,0.00000,0.00000
600,0,0.11,-0.15,-0.53,255,0,0.08622,0.24190,10.03753,-0.01399,-0.01559,0.00866,0.00000,0.00000,0.00000
610,0,0.02,-0.07,-0.54,255,0,0.09101,0.26106,10.00639,-0.01452,-0.01319,0.00919,0.00000,0.00000,0.00000
620,0,0.11,-0.14,-0.54,255,0,0.09101,0.25148,10.04471,-0.01532,-0.01466,0.00719,0.00000,0.00000,0.00000
630,0,0.01,-0.08,-0.55,255,0,0.08622,0.23232,10.02555,-0.01399,-0.01239,0.00839,0.00000,0.00000,0.00000
640,0,0.09,-0.15,-0.56,255,0,0.10059,0.23950,10.02316,-0.01372,-0.01266,0.01053,0.00000,0.00000,0.00000
650,0,-0.02,-0.19,-0.57,255,0,0.12694,0.23232,10.03513,-0.01439,-0.01172,0.00826,0.00000,0.00000,0.00000
660,0,0.10,-0.18,-0.58,255,0,0.11736,0.21555,10.04711,-0.01572,-0.01226,0.00879,0.00000,0.00000,0.00000
670,0,-0.02,-0.18,-0.58,255,0,0.10059,0.21795,10.04711,-0.01372,-0.01306,0.00653,0.00000,0.00000,0.00000
680,0,0.09,-0.22,-0.59,255,0,0.11496,0.24908,10.03034,-0.01466,-0.01292,0.00799,0.00000,0.00000,0.00000
690,0,-0.02,-0.18,-0.60,255,0,0.09580,0.21316,10.04232,-0.01439,-0.01079,0.00759,0.00000,0.00000,0.00000
700,0,0.09,-0.19,-0.61,255,0,0.09820,0.23471,10.01597,-0.01319,-0.01159,0.00773,0.00000,0.00000,0.00000
710,0,-0.02,-0.22,-0.61,255,0,0.12933,0.25866,10.03992,-0.01372,-0.00946,0.00799,0.00000,0.00000,0.00000
720,0,0.09,-0.18,-0.62,255,0,0.10299,0.22992,10.03513,-0.01532,-0.00813,0.00560,0.00000,0.00000,0.00000
730,0,-0.03,-0.18,-0.63,255,0,0.08862,0.22034,10.01358,-0.01452,-0.00706,0.00959,0.00000,0.00000,0.00000
740,0,0.08,-0.14,-0.63,255,0,0.08862,0.23711,10.01837,-0.01372,-0.00906,0.00719,0.00000,0.00000,0.00000
750,0,-0.02,-0.20,-0.64,255,0,0.11975,0.22753,10.05908,-0.01492,-0.01013,0.00466,0.00000,0.00000,0.00000
760,0,0.09,-0.17,-0.65,255,0,0.10538,0.24669,10.04471,-0.01452,-0.00653,0.00813,0.00000,0.00000,0.00000
770,0,-0.01,-0.20,-0.66,255,0,0.10778,0.23471,10.03034,-0.01585,-0.00546,0.00613,0.00000,0.00000,0.00000
780,0,0.09,-0.15,-0.66,255,0,0.10059,0.22992,10.01118,-0.01306,-0.00653,0.00640,0.00000,0.00000,0.00000
790,0,-0.02,-0.17,-0.67,255,0,0.08862,0.22274,10.04232,-0.01292,-0.00626,0.00453,0.00000,0.00000,0.00000
800,0,0.08,-0.21,-0.67,255,0,0.11496,0.24908,10.05669,-0.01466,-0.00640,0.00520,0.00000,0.00000,0.00000
810,0,-0.02,-0.15,-0.68,255,0,0.09101,0.22513,10.05190,-0.01479,-0.00453,0.00626,0.00000,0.00000,0.00000
820,0,0.08,-0.20,-0.69,255,0,0.10538,0.24190,10.03274,-0.01199,-0.00573,0.00666,0.00000,0.00000,0.00000
830,0,0.00,-0.11,-0.69,255,0,0.06946,0.23471,10.03274,-0.01466,-0.00693,0.00773,0.00000,0.00000,0.00000
840,0,0.05,-0.21,-0.70,255,0,0.12933,0.24429,10.04471,-0.01585,-0.00453,0.00440,0.00000,0.00000,0.00000
850,0,-0.06,-0.16,-0.71,255,0,0.11496,0.21795,10.03753,-0.01332,-0.00266,0.00879,0.00000,0.00000,0.00000
860,0,0.03,-0.22,-0.71,255,0,0.11975,0.23232,10.03513,-0.01519,-0.00466,0.00386,0.00000,0.00000,0.00000
870,0,-0.08,-0.24,-0.72,255,0,0.12454,0.20837,10.03513,-0.01132,-0.00160,0.00560,0.00000,0.00000,0.00000
880,0,0.02,-0.27,-0.72,255,0,0.14131,0.23471,10.02795,-0.01252,-0.00240,0.00533,0.00000,0.00000,0.00000
890,0,-0.08,-0.21,-0.73,255,0,0.10059,0.21555,10.04471,-0.01372,-0.00213,0.00640,0.00000,0.00000,0.00000
900,0,0.03,-0.24,-0.74,255,0,0.09820,0.22274,10.01837,-0.00973,0.00107,0.00346,0.00000,0.00000,0.00000
910,0,-0.07,-0.17,-0.74,255,0,0.10299,0.24908,10.03753,-0.01146,-0.00226,0.00413,0.00000,0.00000,0.00000
920,0,0.02,-0.24,-0.75,255,0,0.13412,0.24669,10.03753,-0.01332,0.00226,0.00560,0.00000,0.00000,0.00000
930,0,-0.01,-0.12,-0.75,255,0,0.08143,0.22992,10.01837,-0.01332,0.00067,0.00453,0.00000,0.00000,0.00000
940,0,0.01,-0.22,-0.76,255,0,0.11736,0.23232,10.06148,-0.01119,-0.00213,0.00306,0.00000,0.00000,0.00000
950,0,0.02,-0.10,-0.76,255,0,0.07904,0.23711,10.02316,-0.00946,0.00187,0.00293,0.00000,0.00000,0.00000
960,0,-0.00,-0.20,-0.77,255,0,0.08622,0.22753,10.02795,-0.01306,0.00306,0.00147,0.00000,0.00000,0.00000
970,0,0.03,-0.08,-0.77,255,0,0.08383,0.23711,10.05908,-0.01292,0.00413,0.00373,0.00000,0.00000,0.00000
980,0,0.04,-0.18,-0.78,255,0,0.11975,0.25627,10.03992,-0.01146,0.00107,0.00306,0.00000,0.00000,0.00000
990,0,0.10,-0.27,-0.78,255,0,0.11496,0.24429,10.03992,-0.01279,0.00200,0.00586,0.00000,0.00000,0.00000
1000,0,0.02,-0.18,-0.79,255,0,0.11736,0.22992,10.04232,-0.01212,0.00293,0.00373,0.00000,0.00000,0.00000
1010,0,0.02,-0.28,-0.79,255,0,0.11975,0.22274,10.05190,-0.01092,0.00293,0.00293,0.00000,0.00000,0.00000
1020,0,0.01,-0.15,-0.80,255,0,0.10299,0.23232,10.03753,-0.01252,0.00400,0.00187,0.00000,0.00000,0.00000
1030,0,-0.01,-0.25,-0.80,255,0,0.10059,0.22274,10.04232,-0.01092,0.00293,0.00213,0.00000,0.00000,0.00000
1040,0,0.03,-0.13,-0.81,255,0,0.09101,0.24190,10.01358,-0.01013,0.00413,0.00293,0.00000,0.00000,0.00000
1050,0,0.06,-0.01,-0.81,255,0,0.02395,0.25627,10.03274,-0.01092,0.00413,0.00040,0.00000,0.00000,0.00000
1060,0,0.01,-0.10,-0.81,255,0,0.06706,0.22753,10.02795,-0.01146,0.00493,0.00240,0.00000,0.00000,0.00000
1070,0,0.08,0.00,-0.82,255,0,0.07664,0.24190,10.00879,-0.01226,0.00546,0.00333,0.00000,0.00000,0.00000
1080,0,0.02,-0.08,-0.82,255,0,0.11017,0.22274,10.02076,-0.01146,0.00346,0.00520,0.00000,0.00000,0.00000
1090,0,-0.05,-0.16,-0.83,255,0,0.09341,0.22274,10.02555,-0.01252,0.00253,0.00226,0.00000,0.00000,0.00000
1100,0,0.02,-0.05,-0.83,255,0,0.09820,0.21555,10.03513,-0.01053,0.00679,0.00293,0.00000,0.00000,0.00000
1110,0,-0.08,-0.10,-0.84,255,0,0.06706,0.21076,10.03274,-0.01292,0.00120,0.00067,0.00000,0.00000,0.00000
1120,0,0.03,-0.08,-0.84,255,0,0.09820,0.21795,10.03513,-0.01053,0.00533,0.00386,0.00000,0.00000,0.00000
1130,0,-0.08,-0.08,-0.85,255,0,0.08143,0.20597,10.02076,-0.00879,0.00480,0.00226,0.00000,0.00000,0.00000
1140,0,0.04,-0.08,-0.85,255,0,0.08143,0.24429,10.02076,-0.01079,0.00506,0.00000,0.00000,0.00000,0.00000
1150,0,-0.07,-0.10,-0.85,255,0,0.09580,0.23711,10.01118,-0.00933,0.00360,0.00040,0.00000,0.00000,0.00000
1160,0,0.04,-0.09,-0.86,255,0,0.09101,0.20597,10.01358,-0.00879,0.00759,0.00226,0.00000,0.00000,0.00000
1170,0,-0.07,-0.08,-0.86,255,0,0.08143,0.25148,10.02316,-0.01092,0.00466,0.00200,0.00000,0.00000,0.00000
1180,0,0.04,-0.08,-0.86,255,0,0.08383,0.23950,10.03513,-0.01159,0.00813,-0.00133,0.00000,0.00000,0.00000
1190,0,-0.06,-0.10,-0.87,255,0,0.09101,0.23471,10.03992,-0.00973,0.00480,0.00213,0.00000,0.00000,0.00000
1200,0,0.03,-0.03,-0.87,255,0,0.05988,0.22513,10.02795,-0.00946,0.00560,0.00240,0.00000,0.00000,0.00000
1210,0,-0.07,-0.05,-0.87,255,0,0.06467,0.22274,10.02555,-0.00933,0.00426,0.00160,0.00000,0.00000,0.00000
1220,0,0.03,0.01,-0.88,255,0,0.06706,0.21555,10.04471,-0.00759,0.00386,0.00093,0.00000,0.00000,0.00000
1230,0,-0.07,-0.01,-0.88,255,0,0.05509,0.23471,10.01597,-0.00786,0.00373,0.00053,0.00000,0.00000,0.00000
1240,0,0.04,-0.00,-0.88,255,0,0.07904,0.22753,10.04471,-0.01159,0.00560,-0.00213,0.00000,0.00000,0.00000
1250,0,-0.07,-0.01,-0.89,255,0,0.07664,0.21795,10.03513,-0.01039,0.00560,0.00133,0.00000,0.00000,0.00000
1260,0,0.05,0.00,-0.89,255,0,0.06946,0.21795,10.04232,-0.00906,0.00426,-0.00040,0.00000,0.00000,0.00000
1270,0,-0.07,0.01,-0.89,255,0,0.06467,0.21555,10.02076,-0.00959,0.00333,-0.00253,0.00000,0.00000,0.00000
1280,0,0.03,-0.05,-0.90,255,0,0.08622,0.24190,10.05190,-0.00933,0.00226,0.00000,0.00000,0.00000,0.00000
1290,0,-0.09,-0.04,-0.90,255,0,0.10059,0.23232,10.00879,-0.00839,0.00386,0.00053,0.00000,0.00000,0.00000
1300,0,0.03,-0.03,-0.90,255,0,0.07185,0.22513,10.06148,-0.00973,0.00573,-0.00080,0.00000,0.00000,0.00000
1310,0,-0.07,-0.07,-0.90,255,0,0.09101,0.22992,10.02316,-0.01039,0.00160,0.00053,0.00000,0.00000,0.00000
1320,0,0.02,0.02,-0.91,255,0,0.05988,0.22274,10.03753,-0.00719,0.00320,0.00027,0.00000,0.00000,0.00000
1330,0,-0.04,-0.07,-0.91,255,0,0.08862,0.23232,10.01358,-0.00706,0.00613,-0.00040,0.00000,0.00000,0.00000
1340,0,0.06,0.01,-0.91,255,0,0.07664,0.24190,10.02316,-0.00759,0.00480,-0.00266,0.00000,0.00000,0.00000
1350,0,-0.05,0.01,-0.91,255,0,0.04072,0.20118,10.03992,-0.00733,0.00280,0.00013,0.00000,0.00000,0.00000
1360,0,0.05,-0.04,-0.92,255,0,0.09101,0.25627,10.02076,-0.00759,0.00107,0.00120,0.00000,0.00000,0.00000
1370,0,-0.06,-0.04,-0.92,255,0,0.09580,0.20837,10.02076,-0.00693,0.00400,0.00226,0.00000,0.00000,0.00000
1380,0,0.04,0.01,-0.92,255,0,0.05988,0.22753,10.03992,-0.00986,0.00067,-0.00067,0.00000,0.00000,0.00000
1390,0,-0.05,-0.03,-0.93,255,0,0.07425,0.23711,10.05190,-0.00893,0.00200,-0.00080,0.00000,0.00000,0.00000
1400,0,0.05,0.04,-0.93,255,0,0.05988,0.23471,10.01597,-0.00853,0.00386,0.00000,0.00000,0.00000,0.00000
1410,0,-0.03,-0.03,-0.93,255,0,0.05509,0.25387,10.04950,-0.00653,0.00280,0.00107,0.00000,0.00000,0.00000
1420,0,0.05,0.06,-0.93,255,0,0.05509,0.24190,10.01358,-0.00613,0.00240,-0.00040,0.00000,0.00000,0.00000
1430,0,0.04,-0.04,-0.94,255,0,0.08383,0.25148,10.02316,-0.01039,0.00013,-0.00107,0.00000,0.00000,0.00000
1440,0,0.02,0.08,-0.94,255,0,0.06946,0.22513,10.01597,-0.00600,-0.00253,-0.00133,0.00000,0.00000,0.00000
1450,0,0.04,-0.02,-0.94,255,0,0.06946,0.23711,10.03274,-0.00560,0.00000,0.00000,0.00000,0.00000,0.00000
1460,0,-0.01,0.09,-0.95,255,0,0.05030,0.21795,10.00879,-0.00879,0.00000,0.00000,0.00000,0.00000,0.00000
1470,0,0.03,-0.01,-0.95,255,0,0.08622,0.24190,10.05190,-0.00719,0.00040,0.00067,0.00000,0.00000,0.00000
1480,0,-0.05,0.08,-0.95,255,0,0.05509,0.21555,10.02316,-0.00866,0.00027,-0.00040,0.00000,0.00000,0.00000
1490,0,0.04,0.01,-0.95,255,0,0.07425,0.24429,10.02795,-0.00919,0.00013,-0.00080,0.00000,0.00000,0.00000
1500,0,-0.05,0.09,-0.96,255,0,0.06706,0.23950,10.04950,-0.00733,-0.00173,0.00240,0.00000,0.00000,0.00000
1510,0,0.05,0.04,-0.96,255,0,0.04311,0.23232,10.03274,-0.00666,-0.00266,-0.00107,0.00000,0.00000,0.00000
1520,0,-0.04,0.12,-0.96,255,0,0.04551,0.23232,10.04711,-0.00653,-0.00200,0.00067,0.00000,0.00000,0.00000
1530,0,0.03,0.03,-0.97,255,0,0.09101,0.23950,10.04950,-0.00773,-0.00293,-0.00226,0.00000,0.00000,0.00000
1540,0,-0.08,0.05,-0.97,255,0,0.06227,0.20118,10.04711,-0.00626,-0.00107,-0.00200,0.00000,0.00000,0.00000
1550,0,0.03,0.04,-0.97,255,0,0.06706,0.24190,10.04232,-0.00733,-0.00240,0.00147,0.00000,0.00000,0.00000
1560,0,-0.07,0.00,-0.97,255,0,0.07185,0.23950,10.04950,-0.00653,-0.00320,-0.00346,0.00000,0.00000,0.00000
1570,0,0.04,0.05,-0.97,255,0,0.04790,0.26585,10.02555,-0.00866,-0.00600,0.00133,0.00000,0.00000,0.00000
1580,0,-0.07,0.03,-0.98,255,0,0.06706,0.20118,10.02076,-0.00893,-0.00266,-0.00200,0.00000,0.00000,0.00000
1590,0,0.05,0.04,-0.98,255,0,0.07425,0.24190,10.04232,-0.00799,-0.00440,0.00107,0.00000,0.00000,0.00000
1600,0,-0.06,0.04,-0.98,255,0,0.06227,0.23711,10.04950,-0.00706,-0.00546,-0.00067,0.00000,0.00000,0.00000
1610,0,0.05,0.08,-0.99,255,0,0.04072,0.24429,10.02316,-0.00759,-0.00466,0.00213,0.00000,0.00000,0.00000
1620,0,-0.04,0.02,-0.99,255,0,0.06227,0.23471,10.04711,-0.00666,-0.00453,-0.00213,0.00000,0.00000,0.00000
1630,0,0.06,0.08,-0.99,255,0,0.06706,0.23711,10.03513,-0.01039,-0.00679,0.00120,0.00000,0.00000,0.00000
1640,0,-0.04,0.05,-0.99,255,0,0.05748,0.22274,10.02795,-0.00626,-0.00693,0.00133,0.00000,0.00000,0.00000
1650,0,0.07,0.10,-1.00,255,0,0.05030,0.23711,10.03274,-0.00893,-0.00746,-0.00120,0.00000,0.00000,0.00000
1660,0,0.02,-0.00,-1.00,255,0,0.07904,0.25627,10.01358,-0.00973,-0.00853,-0.00013,0.00000,0.00000,0.00000
1670,0,0.02,0.12,-1.00,255,0,0.04790,0.21795,10.02316,-0.00480,-0.00813,-0.00147,0.00000,0.00000,0.00000
1680,0,0.05,0.01,-1.00,255,0,0.03832,0.24190,10.04471,-0.00813,-0.00866,-0.00133,0.00000,0.00000,0.00000
1690,0,0.00,0.12,-1.01,255,0,0.05269,0.22034,10.03513,-0.00879,-0.00986,0.00093,0.00000,0.00000,0.00000
1700,0,0.11,0.07,-1.01,255,0,0.04551,0.24908,10.04950,-0.00919,-0.00919,0.00000,0.00000,0.00000,0.00000
1710,0,0.02,0.14,-1.01,255,0,0.04551,0.25148,10.04232,-0.00746,-0.00826,0.00160,0.00000,0.00000,0.00000
1720,0,0.12,0.09,-1.02,255,0,0.05748,0.26824,10.03992,-0.01026,-0.01039,0.00107,0.00000,0.00000,0.00000
1730,0,0.04,0.01,-1.02,255,0,0.09580,0.25148,10.05669,-0.00959,-0.00839,0.00067,0.00000,0.00000,0.00000
1740,0,0.16,0.05,-1.02,255,0,0.09341,0.23950,10.03034,-0.00839,-0.01132,0.00027,0.00000,0.00000,0.00000
1750,0,0.05,0.08,-1.03,255,0,0.03114,0.24669,10.05908,-0.00786,-0.01199,0.00080,0.00000,0.00000,0.00000
1760,0,0.16,0.09,-1.03,255,0,0.04551,0.25866,10.02316,-0.00666,-0.01186,0.00187,0.00000,0.00000,0.00000
1770,0,0.06,0.13,-1.03,255,0,0.02635,0.24190,10.04471,-0.00799,-0.00973,-0.00120,0.00000,0.00000,0.00000
1780,0,0.11,0.03,-1.04,255,0,0.07664,0.23711,10.03274,-0.00813,-0.01452,-0.00027,0.00000,0.00000,0.00000
1790,0,0.04,0.13,-1.04,255,0,0.05030,0.22992,10.02795,-0.00719,-0.01426,0.00067,0.00000,0.00000,0.00000
1800,0,0.12,0.04,-1.04,255,0,0.05509,0.24908,10.03034,-0.00839,-0.01252,0.00013,0.00000,0.00000,0.00000
1810,0,0.05,0.13,-1.04,255,0,0.05988,0.24908,10.03513,-0.00973,-0.01785,-0.00080,0.00000,0.00000,0.00000
1820,0,0.01,0.02,-1.05,255,0,0.06467,0.20118,10.05190,-0.01039,-0.01439,0.00187,0.00000,0.00000,0.00000
1830,0,0.08,0.12,-1.05,255,0,0.04551,0.26345,10.04711,-0.01119,-0.01545,0.00093,0.00000,0.00000,0.00000
1840,0,-0.04,0.14,-1.05,255,0,0.03353,0.24429,10.04471,-0.01292,-0.01559,0.00306,0.00000,0.00000,0.00000
1850,0,0.07,0.09,-1.06,255,0,0.06946,0.23711,10.03034,-0.00946,-0.01652,-0.00053,0.00000,0.00000,0.00000
1860,0,0.17,0.15,-1.06,255,0,0.04790,0.27064,10.04232,-0.00933,-0.01732,0.00027,0.00000,0.00000,0.00000
1870,0,0.07,0.10,-1.06,255,0,0.05509,0.22513,10.02316,-0.00973,-0.01865,0.00173,0.00000,0.00000,0.00000
1880,0,0.06,-0.01,-1.07,255,0,0.07425,0.24190,10.03274,-0.01132,-0.01772,0.00067,0.00000,0.00000,0.00000
1890,0,0.04,0.10,-1.07,255,0,0.08383,0.22753,10.04711,-0.01186,-0.01679,0.00200,0.00000,0.00000,0.00000
1900,0,0.08,-0.01,-1.08,255,0,0.08143,0.25866,10.04471,-0.00999,-0.01919,0.00080,0.00000,0.00000,0.00000
1910,0,0.11,0.11,-1.08,255,0,0.04790,0.26585,10.03513,-0.01066,-0.01799,0.00333,0.00000,0.00000,0.00000
1920,0,0.18,0.01,-1.08,255,0,0.02156,0.26585,10.08064,-0.01146,-0.02025,0.00187,0.00000,0.00000,0.00000
1930,0,0.13,0.11,-1.09,255,0,0.03832,0.26106,10.03513,-0.00973,-0.01998,0.00040,0.00000,0.00000,0.00000
1940,0,0.03,0.05,-1.09,255,0,0.06706,0.23232,10.03753,-0.01239,-0.01998,0.00093,0.00000,0.00000,0.00000
1950,0,0.15,0.07,-1.09,255,0,0.07904,0.25866,10.02555,-0.01039,-0.01998,0.00360,0.00000,0.00000,0.00000
1960,0,0.04,0.05,-1.10,255,0,0.06227,0.24190,10.01597,-0.01066,-0.02145,0.00240,0.00000,0.00000,0.00000
1970,0,0.15,0.05,-1.10,255,0,0.07185,0.22274,10.03274,-0.01159,-0.02185,0.00147,0.00000,0.00000,0.00000
1980,0,0.04,0.04,-1.11,255,0,0.06706,0.25148,10.01837,-0.01066,-0.02145,0.00093,0.00000,0.00000,0.00000
1990,0,0.14,0.09,-1.11,255,0,0.05269,0.24190,10.02555,-0.01292,-0.01905,0.00160,0.00000,0.00000,0.00000
2000,0,0.09,-0.02,-1.11,255,0,0.08862,0.27303,10.04950,-0.01439,-0.02238,0.00133,0.00000,0.00000,0.00000
2010,0,0.16,0.07,-1.12,255,0,0.07425,0.25387,10.03274,-0.01266,-0.02225,-0.00093,0.00000,0.00000,0.00000
2020,0,0.07,-0.00,-1.12,255,0,0.05988,0.23950,10.03992,-0.01266,-0.02358,0.00000,0.00000,0.00000,0.00000
2030,0,0.10,0.11,-1.12,255,0,0.05269,0.22992,10.02555,-0.01092,-0.02425,0.00027,0.00000,0.00000,0.00000
2040,0,0.08,-0.01,-1.13,255,0,0.09580,0.24669,10.04711,-0.01319,-0.02158,0.00093,0.00000,0.00000,0.00000
2050,0,0.19,0.03,-1.13,255,0,0.07185,0.27543,10.02795,-0.01199,-0.02398,0.00226,0.00000,0.00000,0.00000
2060,0,0.08,-0.01,-1.13,255,0,0.07425,0.22513,10.02555,-0.00999,-0.02558,-0.00093,0.00000,0.00000,0.00000
2070,0,0.18,-0.05,-1.14,255,0,0.09580,0.28261,10.02795,-0.01532,-0.02411,0.00253,0.00000,0.00000,0.00000
2080,0,0.07,-0.03,-1.14,255,0,0.07664,0.22274,10.02555,-0.01186,-0.02372,0.00253,0.00000,0.00000,0.00000
2090,0,0.19,-0.05,-1.14,255,0,0.08143,0.26824,10.04711,-0.01159,-0.02425,0.00173,0.00000,0.00000,0.00000
2100,0,0.08,-0.02,-1.15,255,0,0.06706,0.23471,10.03992,-0.00999,-0.02478,0.00280,0.00000,0.00000,0.00000
2110,0,0.12,-0.13,-1.15,255,0,0.09820,0.23950,10.01358,-0.01252,-0.02318,0.00266,0.00000,0.00000,0.00000
2120,0,0.04,-0.05,-1.16,255,0,0.09341,0.22513,10.04711,-0.01399,-0.02491,0.00147,0.00000,0.00000,0.00000
2130,0,0.12,-0.14,-1.16,255,0,0.08143,0.23950,10.04232,-0.01172,-0.02518,0.00226,0.00000,0.00000,0.00000
2140,0,0.07,-0.04,-1.16,255,0,0.05988,0.25387,10.03753,-0.01399,-0.02545,0.00173,0.00000,0.00000,0.00000
2150,0,0.10,-0.15,-1.17,255,0,0.08622,0.24429,10.04471,-0.01346,-0.02425,0.00200,0.00000,0.00000,0.00000
2160,0,0.08,-0.04,-1.17,255,0,0.09341,0.25627,10.02555,-0.01399,-0.02691,-0.00027,0.00000,0.00000,0.00000
2170,0,0.11,-0.16,-1.18,255,0,0.07904,0.24669,10.04232,-0.01452,-0.02758,0.00187,0.00000,0.00000,0.00000
2180,0,0.09,-0.05,-1.18,255,0,0.09101,0.25148,10.01118,-0.01506,-0.02531,0.00240,0.00000,0.00000,0.00000
2190,0,-0.02,-0.02,-1.18,255,0,0.06227,0.22753,10.04471,-0.01545,-0.02558,0.00187,0.00000,0.00000,0.00000
2200,0,0.09,-0.04,-1.19,255,0,0.07185,0.26345,10.02555,-0.01532,-0.02465,0.00200,0.00000,0.00000,0.00000
2210,0,-0.01,-0.10,-1.19,255,0,0.08622,0.23471,10.01358,-0.01585,-0.02465,0.00253,0.00000,0.00000,0.00000
2220,0,0.09,-0.06,-1.20,255,0,0.09820,0.22992,10.01837,-0.01386,-0.02332,0.00093,0.00000,0.00000,0.00000
2230,0,-0.02,-0.05,-1.20,255,0,0.07185,0.24190,10.04232,-0.01279,-0.02585,0.00226,0.00000,0.00000,0.00000
2240,0,0.09,-0.09,-1.20,255,0,0.10059,0.25627,10.02795,-0.01279,-0.02585,0.00053,0.00000,0.00000,0.00000
2250,0,0.03,-0.19,-1.21,255,0,0.10778,0.24190,10.05429,-0.01319,-0.02558,0.00107,0.00000,0.00000,0.00000
2260,0,0.11,-0.11,-1.21,255,0,0.10778,0.25387,10.03513,-0.01412,-0.02758,0.00067,0.00000,0.00000,0.00000
2270,0,-0.01,-0.09,-1.21,255,0,0.07425,0.24429,10.03753,-0.01545,-0.02491,0.00000,0.00000,0.00000,0.00000
2280,0,0.10,-0.14,-1.22,255,0,0.11257,0.24429,10.04232,-0.01172,-0.02478,0.00187,0.00000,0.00000,0.00000
2290,0,0.03,-0.05,-1.22,255,0,0.09341,0.24908,10.02316,-0.01745,-0.02531,0.00306,0.00000,0.00000,0.00000
2300,0,0.12,-0.12,-1.22,255,0,0.06467,0.25148,10.02076,-0.01625,-0.02625,0.00226,0.00000,0.00000,0.00000
2310,0,0.04,-0.05,-1.23,255,0,0.08383,0.24669,10.02316,-0.01466,-0.02585,0.00000,0.00000,0.00000,0.00000
2320,0,0.08,-0.16,-1.23,255,0,0.11736,0.22753,10.02076,-0.01479,-0.02558,0.00120,0.00000,0.00000,0.00000
2330,0,0.04,-0.05,-1.24,255,0,0.08383,0.23950,10.04232,-0.01625,-0.02438,0.00173,0.00000,0.00000,0.00000
2340,0,0.01,-0.17,-1.24,255,0,0.06706,0.21555,10.04711,-0.01519,-0.02651,0.00200,0.00000,0.00000,0.00000
2350,0,0.06,-0.07,-1.24,255,0,0.10778,0.24190,10.05669,-0.01372,-0.02691,-0.00027,0.00000,0.00000,0.00000
2360,0,0.03,-0.19,-1.25,255,0,0.11257,0.24190,10.04471,-0.01639,-0.02518,-0.00080,0.00000,0.00000,0.00000
2370,0,0.06,-0.08,-1.25,255,0,0.08862,0.23950,10.04950,-0.01599,-0.02372,0.00120,0.00000,0.00000,0.00000
2380,0,0.03,-0.19,-1.25,255,0,0.10778,0.23471,10.02316,-0.01386,-0.02278,-0.00053,0.00000,0.00000,0.00000
2390,0,0.07,-0.09,-1.25,255,0,0.10059,0.24429,10.02795,-0.01772,-0.02265,-0.00067,0.00000,0.00000,0.00000
2400,0,0.06,-0.21,-1.26,255,0,0.08143,0.25866,10.04471,-0.01426,-0.02451,0.00013,0.00000,0.00000,0.00000
2410,0,0.08,-0.10,-1.26,255,0,0.08143,0.25387,10.02795,-0.01612,-0.02305,0.00147,0.00000,0.00000,0.00000
2420,0,0.13,-0.21,-1.26,255,0,0.09341,0.25387,10.02795,-0.01639,-0.02505,-0.00040,0.00000,0.00000,0.00000
2430,0,0.08,-0.11,-1.27,255,0,0.10059,0.24429,10.03753,-0.01506,-0.02212,0.00173,0.00000,0.00000,0.00000
2440,0,0.09,-0.23,-1.27,255,0,0.10538,0.23950,10.02555,-0.01412,-0.02292,-0.00266,0.00000,0.00000,0.00000
2450,0,0.04,-0.13,-1.27,255,0,0.10538,0.22513,10.03992,-0.01319,-0.02332,-0.00133,0.00000,0.00000,0.00000
2460,0,0.14,-0.19,-1.27,255,0,0.08383,0.24669,10.04232,-0.01732,-0.02478,-0.00253,0.00000,0.00000,0.00000
2470,0,0.05,-0.12,-1.28,255,0,0.09580,0.25148,10.02795,-0.01359,-0.02292,-0.00187,0.00000,0.00000,0.00000
2480,0,0.11,-0.22,-1.28,255,0,0.12454,0.25148,10.02316,-0.01332,-0.02118,0.00013,0.00000,0.00000,0.00000
2490,0,0.04,-0.13,-1.28,255,0,0.10299,0.24190,10.02795,-0.01412,-0.02212,-0.00067,0.00000,0.00000,0.00000
2500,0,0.11,-0.23,-1.28,255,0,0.11017,0.24669,10.03992,-0.01479,-0.02158,-0.00080,0.00000,0.00000,0.00000
2510,0,0.03,-0.15,-1.28,255,0,0.08143,0.21076,10.03274,-0.01452,-0.01945,-0.00147,0.00000,0.00000,0.00000
2520,0,0.14,-0.16,-1.29,255,0,0.09101,0.24669,10.04232,-0.01559,-0.01865,-0.00173,0.00000,0.00000,0.00000
2530,0,0.02,-0.17,-1.29,255,0,0.11257,0.24669,10.02795,-0.01785,-0.02278,-0.00107,0.00000,0.00000,0.00000
2540,0,0.12,-0.13,-1.29,255,0,0.09341,0.23471,10.03753,-0.01732,-0.02078,-0.00320,0.00000,0.00000,0.00000
2550,0,0.01,-0.16,-1.29,255,0,0.09820,0.21555,10.03992,-0.01625,-0.01919,-0.00320,0.00000,0.00000,0.00000
2560,0,0.07,-0.26,-1.29,255,0,0.13412,0.24669,10.03753,-0.01506,-0.01945,-0.00293,0.00000,0.00000,0.00000
2570,0,0.02,-0.16,-1.29,255,0,0.06946,0.22513,10.03513,-0.01479,-0.01879,-0.00386,0.00000,0.00000,0.00000
2580,0,-0.08,-0.10,-1.30,255,0,0.09341,0.22274,10.04471,-0.01372,-0.01919,-0.00360,0.00000,0.00000,0.00000
2590,0,0.00,-0.18,-1.30,255,0,0.11496,0.22513,10.03274,-0.01519,-0.01865,-0.00200,0.00000,0.00000,0.00000
2600,0,-0.09,-0.11,-1.30,255,0,0.10059,0.22753,10.03513,-0.01479,-0.02105,-0.00546,0.00000,0.00000,0.00000
2610,0,0.01,-0.17,-1.30,255,0,0.10059,0.24190,10.02795,-0.01399,-0.01639,-0.00213,0.00000,0.00000,0.00000
2620,0,-0.07,-0.09,-1.30,255,0,0.09101,0.22274,10.03992,-0.01519,-0.01639,-0.00187,0.00000,0.00000,0.00000
2630,0,0.01,-0.17,-1.30,255,0,0.10778,0.24908,10.03513,-0.01652,-0.01745,-0.00533,0.00000,0.00000,0.00000
2640,0,0.03,-0.05,-1.30,255,0,0.07664,0.23232,10.02555,-0.01519,-0.01639,-0.00480,0.00000,0.00000,0.00000
2650,0,0.05,-0.17,-1.30,255,0,0.10059,0.26106,10.02795,-0.01372,-0.01665,-0.00586,0.00000,0.00000,0.00000
2660,0,-0.04,-0.10,-1.30,255,0,0.09580,0.22034,10.04950,-0.01332,-0.01545,-0.00413,0.00000,0.00000,0.00000
2670,0,0.05,-0.16,-1.30,255,0,0.09820,0.24190,10.03513,-0.01426,-0.01585,-0.00466,0.00000,0.00000,0.00000
2680,0,0.03,-0.27,-1.30,255,0,0.12215,0.24908,10.04232,-0.01506,-0.01732,-0.00373,0.00000,0.00000,0.00000
2690,0,0.03,-0.16,-1.30,255,0,0.10778,0.22753,10.05429,-0.01759,-0.01625,-0.00640,0.00000,0.00000,0.00000
2700,0,0.07,-0.26,-1.30,255,0,0.11736,0.25148,10.03274,-0.01585,-0.01399,-0.00520,0.00000,0.00000,0.00000
2710,0,0.01,-0.16,-1.30,255,0,0.11736,0.23471,10.01837,-0.01506,-0.01412,-0.00679,0.00000,0.00000,0.00000
2720,0,0.08,-0.25,-1.30,255,0,0.09820,0.23950,10.01118,-0.01266,-0.01705,-0.00493,0.00000,0.00000,0.00000
2730,0,-0.02,-0.20,-1.30,255,0,0.12694,0.23232,10.02555,-0.01665,-0.01252,-0.00826,0.00000,0.00000,0.00000
2740,0,0.08,-0.25,-1.30,255,0,0.11017,0.23232,10.02076,-0.01332,-0.01439,-0.00560,0.00000,0.00000,0.00000
2750,5,-0.02,-0.19,-1.30,255,0,0.10299,0.23471,10.02076,-0.01479,-0.01266,-0.00413,0.00000,0.00000,0.00000
2760,5,0.06,-0.27,-1.30,255,0,0.11975,0.23471,10.05908,-0.01479,-0.00959,-0.00653,0.00000,0.00000,0.00000
2770,5,-0.03,-0.20,-1.30,255,0,0.11736,0.23232,10.01358,-0.01519,-0.01239,-0.00640,0.00000,0.00000,0.00000
2780,5,0.08,-0.23,-1.30,255,0,0.09580,0.25148,10.03513,-0.01279,-0.00933,-0.00346,0.00000,0.00000,0.00000
2790,5,-0.04,-0.21,-1.30,255,0,0.11017,0.23471,10.03034,-0.01359,-0.01026,-0.00626,0.00000,0.00000,0.00000
2800,5,0.07,-0.24,-1.30,255,0,0.11496,0.23232,10.06148,-0.01479,-0.01066,-0.00866,0.00000,0.00000,0.00000
2810,5,-0.04,-0.22,-1.30,255,0,0.11017,0.19879,10.05429,-0.01426,-0.00626,-0.00866,0.00000,0.00000,0.00000
2820,5,0.07,-0.23,-1.29,255,0,0.11017,0.24190,10.02076,-0.01372,-0.00560,-0.00746,0.00000,0.00000,0.00000
2830,12,-0.05,-0.22,-1.29,255,0,0.10778,0.19400,10.04950,-0.01159,-0.00719,-0.00706,0.00000,0.00000,0.00000
2840,12,0.06,-0.25,-1.29,255,0,0.11017,0.23471,10.04232,-0.01359,-0.00773,-0.00933,0.00000,0.00000,0.00000
2850,12,-0.05,-0.21,-1.29,255,0,0.11736,0.26106,10.05429,-0.01426,-0.00666,-0.00853,0.00000,0.00000,0.00000
2860,12,0.07,-0.21,-1.29,255,0,0.09341,0.23232,10.03513,-0.01252,-0.00799,-0.00813,0.00000,0.00000,0.00000
2870,12,-0.05,-0.23,-1.28,255,0,0.12215,0.21795,10.01358,-0.01252,-0.00426,-0.00879,0.00000,0.00000,0.00000
2880,12,0.07,-0.20,-1.28,255,0,0.10299,0.23711,10.04471,-0.01039,-0.00626,-0.01132,0.00000,0.00000,0.00000
2890,12,-0.05,-0.22,-1.28,255,0,0.10059,0.24429,10.02076,-0.01172,-0.00640,-0.00893,0.00000,0.00000,0.00000
2900,12,0.07,-0.21,-1.28,255,0,0.11496,0.22992,10.03513,-0.01346,-0.00373,-0.01039,0.00000,0.00000,0.00000
2910,12,-0.04,-0.22,-1.28,255,0,0.10778,0.24908,10.03513,-0.01186,-0.00426,-0.00666,0.00000,0.00000,0.00000
2920,12,0.00,-0.11,-1.27,255,0,-0.19400,0.30656,9.71899,-0.00866,-0.01212,-0.01226,0.00000,0.00000,0.00000
2930,12,0.08,-0.02,-1.27,255,0,-0.05509,0.45026,9.81240,-0.00346,-0.00266,-0.00653,0.00000,0.00000,0.00000
2940,12,0.17,0.06,-1.26,255,0,-0.00240,0.36644,9.57768,-0.00839,-0.00120,-0.02265,0.00000,0.00000,0.00000
2950,12,0.27,0.13,-1.25,255,0,-0.38081,0.98675,10.81830,-0.00546,-0.01585,-0.06835,0.00000,0.00000,0.00000
2960,12,0.38,0.08,-1.23,255,0,0.79515,0.17005,9.52260,0.00280,-0.00999,-0.02545,0.00000,0.00000,0.00000
2970,12,0.29,0.02,-1.22,255,0,0.92687,-1.40827,9.57529,-0.02891,0.00946,-0.03864,0.00000,0.00000,0.00000
2980,12,0.20,-0.05,-1.19,255,0,0.78078,-0.43589,10.62191,-0.00946,0.02185,-0.07994,0.00000,0.00000,0.00000
2990,10,0.14,-0.12,-1.17,255,0,0.89813,0.11496,10.89015,-0.00666,0.01479,-0.00719,0.00000,0.00000,0.00000
3000,10,0.08,-0.21,-1.16,255,0,1.09692,-0.00958,11.53202,-0.01652,0.00506,0.00866,0.00000,0.00000,0.00000
3010,10,0.03,-0.30,-1.17,255,0,0.05269,0.44068,9.33100,-0.01252,-0.01585,0.03691,0.00000,0.00000,0.00000
3020,10,0.01,-0.40,-1.18,255,0,0.05509,0.62031,7.64011,0.00400,0.01039,0.04210,0.00000,0.00000,0.00000
3030,10,0.03,-0.51,-1.21,255,0,-0.05030,0.55085,11.21827,-0.01679,-0.00187,0.06328,0.00000,0.00000,0.00000
3040,10,0.02,-0.62,-1.23,255,0,0.39518,0.08622,8.91187,-0.01865,-0.02411,0.04383,0.00000,0.00000,0.00000
3050,10,0.06,-0.72,-1.26,255,0,0.32093,0.57959,9.83874,0.00373,-0.00173,0.02825,0.00000,0.00000,0.00000
3060,10,0.17,-0.75,-1.27,255,0,-0.17244,0.48140,9.94652,-0.01506,0.02345,-0.02158,0.00000,0.00000,0.00000
3070,9,0.28,-0.78,-1.26,255,0,0.23711,0.41194,9.61121,-0.01013,-0.01106,-0.04543,0.00000,0.00000,0.00000
3080,9,0.38,-0.71,-1.25,255,0,-0.09580,0.35207,10.10698,-0.00653,0.01492,-0.04650,0.00000,0.00000,0.00000
3090,9,0.49,-0.67,-1.23,255,0,0.22753,0.42392,10.18841,-0.01226,0.00813,-0.05569,0.00000,0.00000,0.00000
3100,9,0.55,-0.76,-1.21,255,0,0.30656,0.17484,10.31535,-0.00826,0.00400,-0.03251,0.00000,0.00000,0.00000
3110,9,0.56,-0.63,-1.20,255,0,-0.67300,0.41194,9.95610,-0.01053,0.00293,-0.01132,0.00000,0.00000,0.00000
3120,9,0.67,-0.58,-1.20,255,0,0.69935,0.47421,9.98244,-0.01119,0.00533,0.02705,0.00000,0.00000,0.00000
3130,9,0.75,-0.48,-1.21,255,0,-0.28022,0.65145,10.21955,-0.00320,-0.01958,0.03597,0.00000,0.00000,0.00000
3140,9,0.86,-0.45,-1.22,255,0,0.41434,0.45745,9.89862,-0.01199,0.00426,0.02665,0.00000,0.00000,0.00000
3150,10,0.91,-0.34,-1.23,255,0,-0.29698,0.40715,10.24589,-0.00733,-0.00853,0.02425,0.00000,0.00000,0.00000
3160,10,0.80,-0.35,-1.24,255,0,0.44547,0.16765,10.04711,-0.01172,-0.00266,0.00426,0.00000,0.00000,0.00000
3170,10,0.80,-0.23,-1.25,255,0,-0.19400,0.32333,10.03513,-0.00826,0.00400,-0.02745,0.00000,0.00000,0.00000
3180,10,0.77,-0.33,-1.24,255,0,0.58678,0.31375,10.07106,-0.01212,0.00453,-0.05462,0.00000,0.00000,0.00000
3190,10,0.67,-0.37,-1.22,255,0,0.04072,0.21795,9.90580,-0.00453,0.00773,-0.04463,0.00000,0.00000,0.00000
3200,10,0.58,-0.42,-1.20,255,0,0.18681,0.29459,10.08303,-0.01359,0.01119,-0.04143,0.00000,0.00000,0.00000
3210,10,0.47,-0.37,-1.19,255,0,0.01677,0.09341,9.77168,-0.00306,0.00320,-0.02345,0.00000,0.00000,0.00000
3220,10,0.37,-0.40,-1.18,255,0,0.23950,0.24190,10.19799,-0.01186,-0.00400,-0.00027,0.00000,0.00000,0.00000
3230,11,0.37,-0.27,-1.18,255,0,-0.23950,0.39518,9.99921,0.00053,0.00719,0.02278,0.00000,0.00000,0.00000
3240,11,0.35,-0.37,-1.19,255,0,0.42631,0.27064,10.26505,-0.01359,-0.00866,0.03411,0.00000,0.00000,0.00000
3250,11,0.25,-0.30,-1.21,255,0,-0.06946,0.02635,10.01358,-0.01252,0.00000,0.01919,0.00000,0.00000,0.00000
3260,11,0.14,-0.27,-1.22,255,0,0.16286,0.17005,10.09740,-0.00866,0.00080,0.01119,0.00000,0.00000,0.00000
3270,11,0.07,-0.17,-1.22,255,0,-0.07904,0.19879,9.92496,-0.01839,0.00040,-0.00679,0.00000,0.00000,0.00000
3280,11,-0.01,-0.25,-1.22,255,0,0.55804,0.03832,9.87467,-0.00906,0.00280,-0.02864,0.00000,0.00000,0.00000
3290,11,0.02,-0.34,-1.21,255,0,-0.07185,0.42871,10.12135,-0.01319,0.01199,-0.03730,0.00000,0.00000,0.00000
3300,11,-0.09,-0.36,-1.20,255,0,0.25387,-0.20837,9.98244,-0.00560,0.00120,-0.03824,0.00000,0.00000,0.00000
3310,0,-0.21,-0.35,-1.19,255,0,0.07904,0.14370,10.09501,-0.01426,0.00506,-0.01732,0.00000,0.00000,0.29752
3320,0,-0.21,-0.22,-1.18,255,0,0.02156,0.39757,9.71180,-0.00386,0.00506,-0.01559,0.00000,0.00000,0.29752
3330,0,-0.12,-0.28,-1.18,255,0,0.31614,0.48858,9.59445,-0.01292,0.00733,0.01199,0.00000,0.00000,0.29752
3340,0,-0.19,-0.18,-1.19,255,0,-0.13891,-0.06946,10.89255,-0.00546,0.00226,0.01839,0.00000,0.00000,0.29752
3350,0,-0.19,-0.28,-1.20,255,0,0.51014,0.25148,10.02316,-0.00533,-0.00600,0.03158,0.00000,0.00000,0.29752
3360,0,-0.26,-0.35,-1.21,255,0,0.11017,-0.01677,9.91059,-0.01479,0.00839,0.00266,0.00000,0.00000,0.29752
3370,0,-0.36,-0.40,-1.21,255,0,0.11496,0.10299,9.95131,0.00240,-0.00280,0.00013,0.00000,0.00000,0.29752
3380,0,-0.39,-0.28,-1.22,255,0,-0.14370,0.17963,10.19081,-0.01479,0.00000,-0.01186,0.00000,0.00000,0.29752
3390,0,-0.41,-0.38,-1.21,255,0,0.45984,0.15568,9.70941,-0.00226,0.01186,-0.02904,0.00000,0.00000,0.00000
3400,0,-0.44,-0.26,-1.21,255,0,-0.00479,0.17963,10.27942,-0.01159,0.00040,-0.02345,0.00000,0.00000,0.00000
3410,0,-0.53,-0.18,-1.20,255,0,0.01437,0.10059,9.74773,-0.00640,0.01266,-0.02611,0.00000,0.00000,0.00000
3420,0,-0.44,-0.24,-1.19,255,0,0.20358,0.25866,10.19081,-0.00933,-0.00093,-0.00067,0.00000,0.00000,0.00000
3430,0,-0.33,-0.20,-1.19,255,0,0.01437,0.24429,10.20039,-0.00613,0.00786,0.00093,0.00000,0.00000,0.00000
3440,0,-0.21,-0.18,-1.19,255,0,0.07904,0.38799,10.26745,-0.00719,-0.00280,0.02105,0.00000,0.00000,0.00000
3450,0,-0.26,-0.06,-1.20,255,0,0.03114,0.03114,10.04950,-0.00306,0.00386,0.01772,0.00000,0.00000,0.00000
3460,0,-0.15,-0.06,-1.21,255,0,0.09580,0.49577,10.00400,-0.01652,-0.00453,0.01572,0.00000,0.00000,0.00000
3470,0,-0.07,-0.14,-1.22,255,0,0.33291,0.24908,9.92017,0.00266,0.00386,0.00413,0.00000,0.00000,0.00000
3480,0,-0.01,-0.23,-1.22,255,0,-0.01437,0.13173,10.00639,-0.01932,0.00386,-0.01239,0.00000,0.00000,0.00000
3490,0,0.02,-0.33,-1.22,255,0,0.19879,0.26345,10.19560,-0.00133,0.00107,-0.01466,0.00000,0.00000,0.00000
3500,0,-0.03,-0.22,-1.22,255,0,-0.19400,0.07185,9.87467,-0.00453,0.01292,-0.02838,0.00000,0.00000,0.00000
3510,0,0.03,-0.31,-1.21,255,0,0.46703,0.41913,9.94173,-0.01412,-0.00360,-0.01599,0.00000,0.00000,0.00000
3520,0,-0.05,-0.22,-1.21,255,0,-0.21076,-0.07185,10.23152,-0.00506,0.00666,-0.00906,0.00000,0.00000,0.00000
3530,0,-0.16,-0.21,-1.21,255,0,0.25387,0.35686,9.71420,-0.00360,-0.00200,0.00360,0.00000,0.00000,0.00000
3540,0,-0.27,-0.17,-1.21,255,0,0.08622,0.08862,10.12375,-0.00586,0.00546,0.01426,0.00000,0.00000,0.00000
3550,0,-0.18,-0.22,-1.22,255,0,0.17005,0.28022,10.26026,-0.01945,-0.00813,0.01612,0.00000,0.00000,0.00000
3560,0,-0.25,-0.30,-1.23,255,0,0.22513,0.03114,10.46624,0.00133,-0.01319,0.01812,0.00000,0.00000,0.00000
3570,0,-0.21,-0.18,-1.24,255,0,-0.12215,0.30656,10.09980,-0.01146,0.01199,0.00226,0.00000,0.00000,0.00000
3580,0,-0.10,-0.16,-1.24,255,0,0.14610,0.35207,10.29619,-0.01066,-0.00453,-0.00346,0.00000,0.00000,0.00000
3590,0,-0.07,-0.04,-1.24,255,0,-0.32572,0.22753,10.38960,-0.00626,0.00053,-0.01319,0.00000,0.00000,0.00000
3600,0,0.03,-0.08,-1.24,255,0,0.45745,0.40715,10.07585,-0.01958,-0.00520,-0.02172,0.00000,0.00000,0.00000
3610,0,0.02,0.04,-1.23,255,0,-0.18681,0.10538,10.20518,0.00053,-0.00933,-0.01319,0.00000,0.00000,0.00000
3620,0,0.06,0.16,-1.23,255,0,0.00240,0.29219,10.10698,-0.01532,0.01199,-0.01199,0.00000,0.00000,0.00000
3630,0,-0.05,0.17,-1.23,255,0,0.07185,0.05269,10.09022,-0.01172,-0.01319,0.00360,0.00000,0.00000,0.00000
3640,0,-0.02,0.29,-1.23,255,0,-0.07425,0.30896,10.15249,0.00253,-0.00719,0.01306,0.00000,0.00000,0.00000
3650,0,-0.08,0.20,-1.24,255,0,0.17723,0.13891,10.19081,-0.01972,0.00959,0.00986,0.00000,0.00000,0.00000
3660,0,-0.16,0.28,-1.25,255,0,-0.07904,0.18681,10.18362,-0.00013,-0.02531,0.01399,0.00000,0.00000,0.00000
3670,0,-0.27,0.32,-1.25,255,0,-0.04551,0.00000,9.99921,-0.00706,0.00413,0.00506,0.00000,0.00000,0.00000
3680,0,-0.35,0.41,-1.26,255,0,-0.05030,0.18442,9.99921,-0.01665,0.00160,-0.00373,0.00000,0.00000,0.00000
3690,0,-0.30,0.31,-1.26,255,0,0.20118,0.26824,10.15009,0.00346,-0.01985,-0.00826,0.00000,0.00000,0.00000
3700,0,-0.38,0.39,-1.26,255,0,-0.22753,-0.04311,9.97765,-0.01319,0.01146,-0.01945,0.00000,0.00000,0.00000
3710,0,-0.33,0.30,-1.25,255,0,0.28980,0.35446,9.74533,-0.00893,-0.00600,-0.01705,0.00000,0.00000,0.00000
3720,0,-0.22,0.31,-1.25,255,0,-0.09101,0.20118,9.91059,0.00253,-0.02465,-0.00453,0.00000,0.00000,0.00000
3730,0,-0.22,0.43,-1.25,255,0,-0.25387,0.19639,9.81240,-0.01679,0.01412,-0.00240,0.00000,0.00000,0.00000
3740,0,-0.18,0.33,-1.25,255,0,0.26345,0.25866,9.83395,-0.00613,-0.01292,0.01146,0.00000,0.00000,0.00000
3750,0,-0.10,0.42,-1.26,255,0,-0.20118,0.34249,10.11656,-0.00626,-0.03051,0.01479,0.00000,0.00000,0.00000
3760,0,0.01,0.44,-1.27,255,0,0.05030,0.34967,10.19081,-0.01132,0.00919,0.01266,0.00000,0.00000,0.00000
3770,0,-0.04,0.35,-1.28,255,0,0.14370,0.07425,9.93933,-0.00453,-0.01745,0.00746,0.00000,0.00000,0.00000
3780,0,-0.01,0.23,-1.28,255,0,0.08383,0.28022,10.11417,-0.01226,-0.02651,-0.00333,0.00000,0.00000,0.00000
3790,0,0.07,0.33,-1.28,255,0,-0.19639,0.39278,10.04471,-0.00799,0.01226,-0.01092,0.00000,0.00000,0.00000
3800,0,-0.04,0.29,-1.28,255,0,0.12694,0.13412,9.93454,-0.00853,-0.01612,-0.01372,0.00000,0.00000,0.00000
3810,0,0.06,0.35,-1.28,255,0,-0.03593,0.30177,10.05429,-0.01612,-0.02132,-0.01346,0.00000,0.00000,0.00000
3820,0,0.16,0.42,-1.28,255,0,-0.05030,0.31854,10.04950,0.00013,0.00200,-0.00799,0.00000,0.00000,0.00000
3830,0,0.11,0.32,-1.28,255,0,0.14370,0.17484,9.92017,-0.00799,-0.01665,0.00346,0.00000,0.00000,0.00000
3840,0,0.21,0.26,-1.28,255,0,0.03593,0.35207,10.14051,-0.01852,-0.02518,0.00426,0.00000,0.00000,0.00000
3850,0,0.18,0.15,-1.29,255,0,0.19160,0.22034,10.10459,-0.00373,-0.00640,0.01026,0.00000,0.00000,0.00000
3860,0,0.07,0.17,-1.29,255,0,-0.01916,0.23950,9.96568,-0.01226,-0.01665,0.01279,0.00000,0.00000,0.00000
3870,0,0.11,0.06,-1.30,255,0,0.18921,0.25627,10.13812,-0.01825,-0.02465,0.00759,0.00000,0.00000,0.00000
3880,0,0.12,-0.05,-1.30,255,0,0.05988,0.23711,10.15249,-0.00679,-0.01039,-0.00200,0.00000,0.00000,0.00000
3890,0,0.19,0.05,-1.31,255,0,0.01437,0.32812,10.09740,-0.01572,-0.01519,-0.01039,0.00000,0.00000,0.00000
3900,0,0.28,0.12,-1.31,255,0,0.03832,0.30417,10.16207,-0.01146,-0.01639,-0.01239,0.00000,0.00000,0.00000
3910,0,0.35,0.03,-1.30,255,0,0.07185,0.33291,10.08782,-0.00973,-0.01053,-0.01359,0.00000,0.00000,0.00000
3920,0,0.27,-0.04,-1.30,255,0,0.17005,0.22992,9.96328,-0.01625,-0.02118,-0.00773,0.00000,0.00000,0.00000
3930,0,0.20,0.05,-1.30,255,0,0.02635,0.25387,10.09261,-0.00893,-0.02305,-0.00040,0.00000,0.00000,0.00000
3940,0,0.29,0.11,-1.30,255,0,-0.01198,0.31375,9.92017,-0.00959,-0.00759,0.00480,0.00000,0.00000,0.00000
3950,0,0.20,0.04,-1.31,255,0,0.10778,0.20837,9.85311,-0.01186,-0.02118,0.00879,0.00000,0.00000,0.00000
3960,0,0.20,-0.07,-1.31,255,0,0.21076,0.26345,10.02795,-0.01226,-0.02292,0.01039,0.00000,0.00000,0.00000
3970,0,0.11,-0.15,-1.32,255,0,0.21076,0.07904,10.19320,-0.01319,-0.01252,0.00666,0.00000,0.00000,0.00000
3980,0,0.00,-0.17,-1.33,255,0,0.04551,0.18202,10.31535,-0.00973,-0.02318,-0.00266,0.00000,0.00000,0.00000
3990,0,0.03,-0.28,-1.33,255,0,0.11975,0.28980,10.24110,-0.01212,-0.02318,-0.00746,0.00000,0.00000,0.00000
4000,0,0.05,-0.17,-1.33,255,0,-0.03832,0.28261,9.95849,-0.01466,-0.01252,-0.01252,0.00000,0.00000,0.00000
4010,0,-0.03,-0.08,-1.33,255,0,0.16526,0.20118,10.10219,-0.01306,-0.02212,-0.00893,0.00000,0.00000,0.00000
4020,0,0.02,-0.19,-1.32,255,0,0.11257,0.22274,10.27703,-0.01013,-0.01905,-0.00826,0.00000,0.00000,0.00000
4030,0,0.07,-0.09,-1.32,255,0,0.04790,0.28740,10.10459,-0.01092,-0.00959,-0.00546,0.00000,0.00000,0.00000
4040,0,0.19,-0.09,-1.32,255,0,0.08622,0.36165,9.95131,-0.01013,-0.02025,0.00480,0.00000,0.00000,0.00000
4050,0,0.15,0.01,-1.33,255,0,-0.05509,0.19639,9.78605,-0.01359,-0.02092,0.00879,0.00000,0.00000,0.00000
4060,0,0.05,-0.04,-1.33,255,0,0.18681,0.12694,9.98963,-0.01532,-0.01985,0.00746,0.00000,0.00000,0.00000
4070,0,-0.06,-0.09,-1.34,255,0,0.13891,0.11017,9.94412,-0.00999,-0.02092,0.00533,0.00000,0.00000,0.00000
4080,0,-0.10,0.01,-1.34,255,0,-0.06706,0.24429,9.98963,-0.01386,-0.01679,-0.00400,0.00000,0.00000,0.00000
4090,0,0.02,0.03,-1.34,255,0,0.06706,0.37602,10.08543,-0.00999,-0.01226,-0.00959,0.00000,0.00000,0.00000
4100,0,0.12,-0.02,-1.34,255,0,0.12694,0.30417,10.06627,-0.01359,-0.02225,-0.01266,0.00000,0.00000,0.00000
4110,0,0.02,-0.08,-1.34,255,0,0.16286,0.06706,10.07106,-0.01346,-0.02078,-0.01172,0.00000,0.00000,0.00000
4120,0,-0.05,-0.17,-1.34,255,0,0.12215,0.23950,10.17165,-0.01026,-0.01053,-0.00906,0.00000,0.00000,0.00000
4130,0,-0.02,-0.06,-1.34,255,0,-0.05988,0.26585,10.04471,-0.00879,-0.02372,-0.00373,0.00000,0.00000,0.00000
4140,0,0.09,-0.01,-1.34,255,0,0.06467,0.37123,9.96807,-0.01359,-0.02198,0.00173,0.00000,0.00000,0.00000
4150,0,0.03,-0.11,-1.34,255,0,0.17484,0.14610,9.92017,-0.01559,-0.02132,0.00466,0.00000,0.00000,0.00000
4160,0,0.12,-0.18,-1.35,255,0,0.18442,0.34249,10.11177,-0.01319,-0.02318,0.00533,0.00000,0.00000,0.00000
4170,0,0.11,-0.30,-1.35,255,0,0.19639,0.21316,10.03513,-0.00933,-0.02118,0.00053,0.00000,0.00000,0.00000
4180,0,0.18,-0.22,-1.35,255,0,0.00000,0.35686,9.98244,-0.01013,-0.01772,-0.00293,0.00000,0.00000,0.00000
4190,0,0.26,-0.30,-1.35,255,0,0.19400,0.28022,10.13812,-0.01359,-0.01799,-0.00773,0.00000,0.00000,0.00000
4200,0,0.15,-0.28,-1.35,255,0,0.07904,0.02635,10.08064,-0.01545,-0.01865,-0.01239,0.00000,0.00000,0.00000
4210,0,0.04,-0.29,-1.35,255,0,0.17005,0.20837,10.02795,-0.01319,-0.02118,-0.01466,0.00000,0.00000,0.00000
4220,0,-0.08,-0.27,-1.35,255,0,0.09101,0.18681,9.94173,-0.01279,-0.02185,-0.01066,0.00000,0.00000,0.00000
4230,0,-0.07,-0.16,-1.34,255,0,0.06467,0.23711,9.98723,-0.01292,-0.02198,-0.00613,0.00000,0.00000,0.00000
4240,0,-0.19,-0.19,-1.34,255,0,0.10059,0.11257,10.13093,-0.01572,-0.01958,-0.00067,0.00000,0.00000,0.00000
4250,0,-0.07,-0.20,-1.35,255,0,0.12454,0.50295,10.20039,-0.01639,-0.02438,0.00626,0.00000,0.00000,0.00000
4260,0,-0.11,-0.10,-1.35,255,0,-0.00240,0.03114,10.06387,-0.01839,-0.02372,0.00240,0.00000,0.00000,0.00000
4270,0,-0.14,0.01,-1.35,255,0,-0.03832,0.17723,9.99202,-0.01252,-0.02198,-0.00133,0.00000,0.00000,0.00000
4280,0,-0.17,0.12,-1.35,255,0,-0.04551,0.17963,9.90341,-0.01306,-0.02265,-0.00453,0.00000,0.00000,0.00000
4290,0,-0.16,0.23,-1.36,255,0,-0.14370,0.22992,9.99442,-0.01439,-0.01932,-0.00719,0.00000,0.00000,0.00000
4300,0,-0.05,0.19,-1.35,255,0,0.18442,0.32093,10.13572,-0.01665,-0.02332,-0.01466,0.00000,0.00000,0.00000
4310,0,-0.17,0.19,-1.35,255,0,0.03353,0.07425,9.96328,-0.01652,-0.02491,-0.01266,0.00000,0.00000,0.00000
4320,0,-0.17,0.07,-1.35,255,0,0.08862,0.21795,10.10459,-0.01452,-0.01772,-0.00946,0.00000,0.00000,0.00000
4330,0,-0.06,0.09,-1.35,255,0,0.08383,0.30417,10.00879,-0.01639,-0.02092,-0.00546,0.00000,0.00000,0.00000
4340,0,0.05,0.05,-1.35,255,0,0.10778,0.37362,10.17404,-0.01705,-0.02505,-0.00240,0.00000,0.00000,0.00000
4350,0,-0.07,0.02,-1.35,255,0,0.06946,0.11257,10.11417,-0.01612,-0.02385,0.00093,0.00000,0.00000,0.00000
4360,0,0.02,0.08,-1.35,255,0,0.02874,0.25866,9.87946,-0.01572,-0.02611,0.00067,0.00000,0.00000,0.00000
4370,0,-0.01,-0.03,-1.35,255,0,0.13412,0.22034,10.01837,-0.01186,-0.02665,-0.00213,0.00000,0.00000,0.00000
4380,0,0.08,0.03,-1.35,255,0,-0.00240,0.34728,10.06148,-0.01452,-0.02092,-0.00520,0.00000,0.00000,0.00000
4390,0,0.18,0.08,-1.35,255,0,0.05509,0.28980,9.85311,-0.01399,-0.02491,-0.01079,0.00000,0.00000,0.00000
4400,0,0.07,0.04,-1.35,255,0,0.09820,0.13891,10.08782,-0.01585,-0.02078,-0.01239,0.00000,0.00000,0.00000
4410,0,-0.01,-0.05,-1.35,255,0,0.11017,0.22274,10.01358,-0.01585,-0.02451,-0.01492,0.00000,0.00000,0.00000
4420,0,0.08,0.02,-1.34,255,0,0.06467,0.25866,9.95131,-0.01652,-0.02611,-0.01279,0.00000,0.00000,0.00000
4430,0,0.17,-0.06,-1.34,255,0,0.07185,0.29698,10.34409,-0.01039,-0.02372,-0.00759,0.00000,0.00000,0.00000
4440,0,0.13,0.04,-1.34,255,0,0.02395,0.26345,9.86509,-0.01625,-0.02238,-0.00386,0.00000,0.00000,0.00000
4450,0,0.10,-0.07,-1.34,255,0,0.18202,0.22513,10.47103,-0.01506,-0.02478,0.00053,0.00000,0.00000,0.00000
4460,0,0.15,0.02,-1.34,255,0,0.05030,0.26345,9.86269,-0.01732,-0.02132,-0.00160,0.00000,0.00000,0.00000
4470,0,0.17,-0.09,-1.34,255,0,0.07664,0.29698,10.31056,-0.01652,-0.02292,-0.00240,0.00000,0.00000,0.00000
4480,0,0.06,-0.09,-1.34,255,0,0.11975,0.22274,9.92736,-0.01319,-0.02118,-0.00853,0.00000,0.00000,0.00000
4490,0,0.17,-0.09,-1.34,255,0,0.07904,0.32572,9.93454,-0.01692,-0.02518,-0.01252,0.00000,0.00000,0.00000
4500,0,0.24,-0.01,-1.33,255,0,0.05269,0.26585,9.96568,-0.01599,-0.01945,-0.01359,0.00000,0.00000,0.00000
4510,0,0.13,-0.05,-1.33,255,0,0.06706,0.23711,9.87946,-0.01466,-0.02078,-0.01745,0.00000,0.00000,0.00000
4520,0,0.06,-0.14,-1.32,255,0,0.17723,0.15807,9.93454,-0.01585,-0.02225,-0.01399,0.00000,0.00000,0.00000
4530,0,0.03,-0.25,-1.32,255,0,0.17244,0.22753,9.96568,-0.01279,-0.02025,-0.01159,0.00000,0.00000,0.00000
4540,0,0.08,-0.15,-1.32,255,0,0.05748,0.26585,9.83395,-0.01466,-0.02451,-0.00333,0.00000,0.00000,0.00000
4550,0,0.18,-0.10,-1.32,255,0,-0.00719,0.42871,9.92496,-0.01799,-0.02145,-0.00213,0.00000,0.00000,0.00000
4560,0,0.07,-0.14,-1.32,255,0,0.17723,0.03353,10.14770,-0.01732,-0.02052,-0.00266,0.00000,0.00000,0.00000
4570,0,0.18,-0.16,-1.32,255,0,0.09580,0.39518,10.13093,-0.01585,-0.02332,-0.00693,0.00000,0.00000,0.00000
4580,0,0.27,-0.23,-1.32,255,0,0.19400,0.37123,9.77886,-0.01479,-0.01892,-0.01026,0.00000,0.00000,0.00000
4590,0,0.20,-0.33,-1.31,255,0,0.25866,0.13173,10.16207,-0.01319,-0.02038,-0.01332,0.00000,0.00000,0.00000
4600,0,0.09,-0.36,-1.31,255,0,0.12933,-0.05269,10.11177,-0.01399,-0.02225,-0.01692,0.00000,0.00000,0.00000
4610,0,-0.02,-0.39,-1.30,255,0,0.21555,0.03114,10.02555,-0.01279,-0.01812,-0.01665,0.00000,0.00000,0.00000
4620,0,-0.11,-0.46,-1.30,255,0,0.25387,0.26824,9.87946,-0.01519,-0.01572,-0.01412,0.00000,0.00000,0.00000
4630,0,-0.22,-0.44,-1.30,255,0,0.02635,0.22274,10.04711,-0.01692,-0.01732,-0.01106,0.00000,0.00000,0.00000
4640,0,-0.23,-0.33,-1.29,255,0,0.14131,0.20358,9.92257,-0.01159,-0.01745,-0.00733,0.00000,0.00000,0.00000
4650,0,-0.12,-0.35,-1.29,255,0,0.06946,0.24908,10.16446,-0.01492,-0.02052,-0.00573,0.00000,0.00000,0.00000
4660,0,-0.17,-0.46,-1.29,255,0,0.25627,0.18202,10.00879,-0.01092,-0.01612,-0.00839,0.00000,0.00000,0.00000
4670,0,-0.28,-0.49,-1.29,255,0,0.17484,0.04790,10.22194,-0.01532,-0.01612,-0.00853,0.00000,0.00000,0.00000
4680,0,-0.30,-0.37,-1.28,255,0,-0.11975,0.20118,10.05429,-0.01506,-0.01665,-0.01426,0.00000,0.00000,0.00000
4690,0,-0.27,-0.26,-1.28,255,0,-0.13891,0.31614,9.91059,-0.01612,-0.01452,-0.01692,0.00000,0.00000,0.00000
4700,0,-0.21,-0.16,-1.27,255,0,-0.15568,0.40715,9.93933,-0.01785,-0.01492,-0.01625,0.00000,0.00000,0.00000
4710,0,-0.15,-0.06,-1.27,255,0,0.28501,0.09820,9.92736,-0.01479,-0.01092,-0.02092,0.00000,0.00000,0.00000
4720,0,-0.08,0.03,-1.26,255,0,-0.03353,0.29938,9.87227,-0.01146,-0.01492,-0.01745,0.00000,0.00000,0.00000
4730,0,-0.00,0.11,-1.25,255,0,0.12215,0.17723,10.00639,-0.01532,-0.01412,-0.01266,0.00000,0.00000,0.00000
4740,0,0.08,0.04,-1.25,255,0,0.03353,0.29459,9.92017,-0.01612,-0.01332,-0.01306,0.00000,0.00000,0.00000
4750,0,0.06,-0.07,-1.24,255,0,0.22513,0.25866,10.05908,-0.01332,-0.01199,-0.00826,0.00000,0.00000,0.00000
4760,0,-0.05,-0.11,-1.24,255,0,0.11496,0.09580,10.12375,-0.01186,-0.01159,-0.00600,0.00000,0.00000,0.00000
4770,0,-0.15,-0.15,-1.24,255,0,0.12454,0.13652,10.14051,-0.01212,-0.01492,-0.01279,0.00000,0.00000,0.00000
4780,0,-0.25,-0.20,-1.23,255,0,0.13412,0.14610,10.12375,-0.01199,-0.01172,-0.01319,0.00000,0.00000,0.00000
4790,0,-0.22,-0.09,-1.23,255,0,0.00479,0.22274,9.99921,-0.01279,-0.00853,-0.01785,0.00000,0.00000,0.00000
4800,0,-0.14,-0.17,-1.22,255,0,0.16526,0.26585,10.17883,-0.01159,-0.01372,-0.02038,0.00000,0.00000,0.00000
4810,0,-0.04,-0.22,-1.21,255,0,0.11017,0.23950,9.87946,-0.01266,-0.00999,-0.02238,0.00000,0.00000,0.00000
4820,0,0.03,-0.30,-1.21,255,0,0.21316,0.33051,9.93454,-0.01132,-0.00413,-0.01799,0.00000,0.00000,0.00000
4830,0,0.08,-0.20,-1.20,255,0,0.03114,0.27303,10.14291,-0.01279,-0.01252,-0.01639,0.00000,0.00000,0.00000
4840,0,0.05,-0.30,-1.19,255,0,0.13173,0.23711,9.99681,-0.01319,-0.00973,-0.01372,0.00000,0.00000,0.00000
4850,0,0.15,-0.36,-1.19,255,0,0.20597,0.28740,10.08782,-0.01346,-0.01013,-0.01026,0.00000,0.00000,0.00000
4860,0,0.03,-0.38,-1.18,255,0,0.15568,0.19639,9.92736,-0.01079,-0.00893,-0.01106,0.00000,0.00000,0.00000
4870,0,0.07,-0.26,-1.18,255,0,0.10778,0.23232,10.02316,-0.01252,-0.00839,-0.01532,0.00000,0.00000,0.00000
4880,0,0.05,-0.37,-1.17,255,0,0.09580,0.25387,10.00639,-0.01279,-0.00746,-0.01772,0.00000,0.00000,0.00000
4890,0,0.04,-0.25,-1.17,255,0,0.07185,0.22513,9.95131,-0.01132,-0.00240,-0.01998,0.00000,0.00000,0.00000
4900,0,-0.06,-0.20,-1.16,255,0,0.10299,0.19879,10.12854,-0.01252,-0.00666,-0.02212,0.00000,0.00000,0.00000
4910,0,0.04,-0.24,-1.15,255,0,0.10778,0.23232,10.05190,-0.01226,-0.00799,-0.02318,0.00000,0.00000,0.00000
4920,0,-0.06,-0.18,-1.14,255,0,0.08143,0.19879,9.90341,-0.01346,-0.00999,-0.02065,0.00000,0.00000,0.00000
4930,0,-0.04,-0.06,-1.13,255,0,0.04790,0.21555,10.05190,-0.01532,-0.00693,-0.01785,0.00000,0.00000,0.00000
4940,0,0.05,-0.13,-1.12,255,0,0.07185,0.27782,9.96568,-0.01212,-0.00826,-0.01599,0.00000,0.00000,0.00000
4950,0,-0.03,-0.04,-1.12,255,0,0.08143,0.23471,10.07345,-0.01199,-0.00533,-0.01092,0.00000,0.00000,0.00000
4960,0,0.07,-0.08,-1.11,255,0,0.07185,0.26345,10.03753,-0.01332,-0.00679,-0.01506,0.00000,0.00000,0.00000
4970,0,0.14,0.02,-1.11,255,0,0.07664,0.26585,10.09261,-0.01412,-0.00799,-0.01665,0.00000,0.00000,0.00000
4980,0,0.11,-0.09,-1.10,255,0,0.16047,0.26106,10.03034,-0.01013,-0.00693,-0.01958,0.00000,0.00000,0.00000
4990,0,0.00,-0.08,-1.09,255,0,0.03593,0.20118,10.18841,-0.01172,-0.00400,-0.02265,0.00000,0.00000,0.00000
5000,0,0.06,-0.17,-1.08,255,0,0.12694,0.22753,10.04711,-0.01039,-0.00453,-0.02638,0.00000,0.00000,0.00000
5010,0,0.04,-0.05,-1.07,255,0,0.02635,0.23950,10.14770,-0.01292,-0.00853,-0.02305,0.00000,0.00000,0.00000
5020,0,0.09,-0.15,-1.06,255,0,0.11496,0.25627,10.05669,-0.01292,-0.00600,-0.01945,0.00000,0.00000,0.00000
5030,0,-0.02,-0.10,-1.05,255,0,0.10538,0.19879,10.09980,-0.01079,-0.00666,-0.01985,0.00000,0.00000,0.00000
5040,0,0.01,-0.20,-1.04,255,0,0.09101,0.21316,10.17404,-0.01199,-0.00573,-0.01692,0.00000,0.00000,0.00000
5050,0,0.01,-0.08,-1.04,255,0,0.09101,0.24669,10.05669,-0.01092,-0.00586,-0.01519,0.00000,0.00000,0.00000
5060,0,-0.00,-0.19,-1.03,255,0,0.12694,0.22753,10.12135,-0.00946,-0.00879,-0.01585,0.00000,0.00000,0.00000
5070,0,0.09,-0.25,-1.02,255,0,0.15807,0.27064,10.05908,-0.00959,-0.00453,-0.01972,0.00000,0.00000,0.00000
5080,0,-0.02,-0.21,-1.01,255,0,0.11257,0.20358,10.09261,-0.01026,-0.00653,-0.02105,0.00000,0.00000,0.00000
5090,0,0.03,-0.10,-1.00,255,0,0.04072,0.24190,9.98005,-0.01159,-0.00253,-0.02425,0.00000,0.00000,0.00000
5100,0,0.15,-0.06,-0.99,255,0,0.05748,0.25866,9.98484,-0.00906,-0.00466,-0.02665,0.00000,0.00000,0.00000
5110,0,0.04,-0.10,-0.98,255,0,0.09341,0.22992,10.25068,-0.01026,-0.00240,-0.02531,0.00000,0.00000,0.00000
5120,0,0.03,-0.20,-0.97,255,0,0.14849,0.23471,10.01597,-0.00786,-0.00266,-0.02198,0.00000,0.00000,0.00000
5130,0,0.03,-0.08,-0.96,255,0,0.08383,0.23471,10.11656,-0.01226,-0.00120,-0.02185,0.00000,0.00000,0.00000
5140,0,0.09,-0.17,-0.95,255,0,0.11975,0.28501,10.00879,-0.01092,-0.00160,-0.01852,0.00000,0.00000,0.00000
5150,0,0.05,-0.06,-0.95,255,0,0.06946,0.23711,10.02795,-0.00933,-0.00133,-0.01639,0.00000,0.00000,0.00000
5160,0,0.12,-0.13,-0.94,255,0,0.05509,0.24908,10.03274,-0.01106,-0.00160,-0.01652,0.00000,0.00000,0.00000
5170,0,0.09,-0.02,-0.93,255,0,0.06227,0.26345,9.90341,-0.00959,-0.00506,-0.02212,0.00000,0.00000,0.00000
5180,0,0.08,-0.12,-0.92,255,0,0.11257,0.23232,10.04471,-0.00786,-0.00040,-0.02212,0.00000,0.00000,0.00000
5190,0,-0.03,-0.13,-0.91,255,0,0.10778,0.23471,10.08064,-0.01106,-0.00080,-0.02345,0.00000,0.00000,0.00000
5200,0,0.08,-0.16,-0.90,255,0,0.12454,0.23711,9.89143,-0.00879,-0.00280,-0.02585,0.00000,0.00000,0.00000
5210,0,-0.01,-0.21,-0.89,255,0,0.10538,0.24429,10.22673,-0.00799,-0.00160,-0.02864,0.00000,0.00000,0.00000
5220,0,0.09,-0.14,-0.88,255,0,0.11496,0.20597,9.93933,-0.01053,0.00213,-0.02545,0.00000,0.00000,0.00000
5230,0,-0.03,-0.11,-0.87,255,0,0.05509,0.25148,10.15249,-0.01079,-0.00466,-0.02078,0.00000,0.00000,0.00000
5240,0,0.04,-0.19,-0.86,255,0,0.10299,0.20118,10.08543,-0.01172,-0.00093,-0.01865,0.00000,0.00000,0.00000
5250,0,-0.07,-0.17,-0.85,255,0,0.12933,0.19879,9.94891,-0.01053,-0.00053,-0.01625,0.00000,0.00000,0.00000
5260,0,0.04,-0.13,-0.84,255,0,0.08143,0.23471,10.11417,-0.00853,-0.00053,-0.01452,0.00000,0.00000,0.00000
5270,0,-0.07,-0.10,-0.83,255,0,0.06467,0.21795,9.91299,-0.00959,0.00253,-0.01492,0.00000,0.00000,0.00000
5280,0,0.05,-0.10,-0.83,255,0,0.08383,0.28022,10.08064,-0.00866,0.00320,-0.01759,0.00000,0.00000,0.00000
5290,0,-0.06,-0.10,-0.82,255,0,0.08622,0.22274,10.01597,-0.00879,0.00293,-0.02145,0.00000,0.00000,0.00000
5300,0,0.05,-0.13,-0.81,255,0,0.11017,0.22513,10.05190,-0.00986,0.00440,-0.02158,0.00000,0.00000,0.00000
5310,0,-0.06,-0.14,-0.80,255,0,0.10059,0.24669,10.03992,-0.00786,-0.00067,-0.01945,0.00000,0.00000,0.00000
5320,0,0.02,-0.06,-0.80,255,0,0.05748,0.21076,10.01118,-0.01146,0.00413,-0.01799,0.00000,0.00000,0.00000
5330,0,0.00,-0.16,-0.79,255,0,0.09820,0.24908,10.13812,-0.00826,0.00147,-0.01439,0.00000,0.00000,0.00000
5340,0,0.04,-0.04,-0.78,255,0,0.08622,0.24190,10.00879,-0.01146,0.00147,-0.01132,0.00000,0.00000,0.00000
5350,0,0.04,-0.14,-0.78,255,0,0.08862,0.24908,10.06148,-0.00973,-0.00253,-0.01092,0.00000,0.00000,0.00000
5360,0,0.11,-0.04,-0.77,255,0,0.10778,0.24908,9.99921,-0.00813,0.00493,-0.01359,0.00000,0.00000,0.00000
5370,0,0.04,-0.12,-0.77,255,0,0.10299,0.22513,9.92017,-0.00866,0.00173,-0.01506,0.00000,0.00000,0.00000
5380,0,0.07,0.00,-0.76,255,0,0.06227,0.24669,10.02555,-0.00626,0.00413,-0.01985,0.00000,0.00000,0.00000
5390,0,0.06,-0.10,-0.75,255,0,0.10059,0.24669,9.95131,-0.00613,0.00360,-0.02345,0.00000,0.00000,0.00000
5400,0,0.12,0.01,-0.74,255,0,0.06946,0.24908,10.12614,-0.00799,0.00266,-0.02132,0.00000,0.00000,0.00000
5410,0,0.06,-0.07,-0.73,255,0,0.10538,0.22034,9.92975,-0.00853,0.00453,-0.02451,0.00000,0.00000,0.00000
5420,0,-0.04,-0.11,-0.73,255,0,0.07185,0.22753,10.11417,-0.00719,0.00160,-0.02065,0.00000,0.00000,0.00000
5430,0,0.08,-0.08,-0.72,255,0,0.09341,0.24429,10.04950,-0.00693,0.00213,-0.01825,0.00000,0.00000,0.00000
5440,0,-0.03,-0.11,-0.71,255,0,0.08143,0.24908,10.00400,-0.00999,0.00080,-0.01426,0.00000,0.00000,0.00000
5450,0,0.08,-0.06,-0.70,255,0,0.07904,0.25148,10.14051,-0.00986,0.00226,-0.01159,0.00000,0.00000,0.00000
5460,0,-0.02,-0.09,-0.70,255,0,0.08862,0.21076,9.96328,-0.00879,0.00013,-0.01399,0.00000,0.00000,0.00000
5470,0,0.05,0.01,-0.69,255,0,0.03593,0.24190,10.12854,-0.00719,0.00147,-0.01506,0.00000,0.00000,0.00000
5480,0,0.09,-0.09,-0.69,255,0,0.07425,0.26106,9.95610,-0.00613,0.00533,-0.01852,0.00000,0.00000,0.00000
5490,0,0.08,0.03,-0.68,255,0,0.06227,0.25387,10.02316,-0.00853,0.00093,-0.02092,0.00000,0.00000,0.00000
5500,0,0.12,-0.06,-0.67,255,0,0.06467,0.25387,10.05190,-0.00946,0.00333,-0.02185,0.00000,0.00000,0.00000
5510,0,0.10,0.06,-0.66,255,0,0.08143,0.26585,9.97765,-0.00986,-0.00027,-0.02358,0.00000,0.00000,0.00000
5520,0,0.17,-0.02,-0.65,255,0,0.05509,0.27303,10.08303,-0.01053,0.00000,-0.02212,0.00000,0.00000,0.00000
5530,0,0.11,0.08,-0.64,255,0,0.04311,0.24908,9.96328,-0.00786,-0.00040,-0.01972,0.00000,0.00000,0.00000
5540,0,0.08,-0.01,-0.63,255,0,0.04551,0.23232,10.12135,-0.00813,-0.00027,-0.01532,0.00000,0.00000,0.00000
5550,0,0.11,0.11,-0.63,255,0,0.06946,0.24190,10.00160,-0.00946,-0.00120,-0.01079,0.00000,0.00000,0.00000
5560,0,0.06,0.01,-0.62,255,0,0.04311,0.24429,10.09980,-0.00879,-0.00173,-0.01279,0.00000,0.00000,0.00000
5570,0,0.05,0.14,-0.62,255,0,0.03593,0.20837,10.05669,-0.01079,-0.00160,-0.01426,0.00000,0.00000,0.00000
5580,0,0.06,0.03,-0.61,255,0,0.06706,0.24190,10.04711,-0.00679,-0.00306,-0.01732,0.00000,0.00000,0.00000
5590,0,0.05,0.16,-0.60,255,0,0.06227,0.24429,10.06387,-0.00799,-0.00200,-0.02052,0.00000,0.00000,0.00000
5600,0,0.11,0.07,-0.60,255,0,0.04072,0.26824,9.97286,-0.00973,-0.00306,-0.02172,0.00000,0.00000,0.00000
5610,0,0.04,0.16,-0.59,255,0,0.05509,0.24669,10.07585,-0.00999,-0.00147,-0.02052,0.00000,0.00000,0.00000
5620,0,0.08,0.06,-0.58,255,0,0.10059,0.23711,9.99442,-0.01053,-0.00253,-0.01852,0.00000,0.00000,0.00000
5630,0,0.03,-0.03,-0.57,255,0,0.06706,0.23471,10.04711,-0.00999,-0.00640,-0.01932,0.00000,0.00000,0.00000
5640,0,0.07,0.08,-0.56,255,0,0.04072,0.24669,10.04711,-0.00866,-0.00879,-0.01452,0.00000,0.00000,0.00000
