Timestamp,Throttle,Roll,Pitch,Yaw,KillSwitch,Emergency,Ax_ms2,Ay_ms2,Az_ms2,Gx_rps,Gy_rps,Gz_rps
# Flight Data Log - Single Flight Mode
# Generated by Starship Hand Controller
# Timestamp: milliseconds since loop start (flight time)
# Control values: 0-255 (127=center)
# Emergency: 1=active, 0=normal
# File overwrites on each restart
# ========================
2355,,,,,,,, # System startup - Hand Controller initialized
20191,,,,,,,, # Flight started - Loop timestamp zero point set
0,128,-0.01,-0.11,-0.00,128,0,0.01437,0.05988,9.96328,-0.01399,-0.01239,-0.00440
528,128,-0.01,-0.10,-0.00,128,0,-0.01916,0.07185,9.94891,-0.01092,-0.00986,-0.00506
538,128,-0.01,-0.08,-0.00,128,0,-0.02874,0.06227,9.95131,-0.01119,-0.01146,-0.00306
548,128,-0.01,-0.08,-0.00,128,0,0.00958,0.04551,9.98484,-0.01386,-0.01172,-0.00600
558,128,-0.01,-0.06,-0.00,128,0,-0.02874,0.05988,9.98484,-0.00986,-0.01372,-0.00600
568,128,-0.01,-0.06,-0.00,128,0,-0.01437,0.06946,9.93694,-0.01053,-0.01332,-0.00266
578,128,0.01,-0.06,-0.00,128,0,-0.00479,0.08143,9.95610,-0.01186,-0.01146,-0.00759
588,128,0.02,-0.05,-0.00,128,0,-0.01677,0.07664,9.95131,-0.01013,-0.01212,-0.00413
598,128,0.02,-0.03,-0.00,128,0,-0.02874,0.07185,9.96807,-0.01146,-0.01092,-0.00719
608,128,0.01,-0.03,-0.00,128,0,-0.02156,0.04551,9.94891,-0.01186,-0.01186,-0.00586
618,128,-0.01,-0.02,-0.00,128,0,-0.02395,0.03353,9.97765,-0.01053,-0.01372,-0.00493
628,128,-0.01,-0.01,-0.00,128,0,-0.03832,0.08383,9.96328,-0.01039,-0.00933,-0.00533
638,128,-0.03,-0.01,-0.00,128,0,-0.00479,0.01916,9.94173,-0.01226,-0.01372,-0.00560
648,128,-0.03,-0.00,-0.00,128,0,-0.02635,0.06946,9.97047,-0.01292,-0.01079,-0.00666
658,128,-0.04,-0.00,-0.00,128,0,-0.01677,0.04311,9.95131,-0.01159,-0.01146,-0.00719
668,128,-0.04,-0.01,-0.00,128,0,-0.01198,0.05030,9.96568,-0.01239,-0.01412,-0.00520
678,128,-0.03,-0.00,-0.00,128,0,-0.03114,0.08383,9.97047,-0.01172,-0.01119,-0.00453
688,128,-0.01,-0.00,-0.00,128,0,-0.01437,0.09580,9.94173,-0.01132,-0.00879,-0.00333
698,128,-0.00,-0.01,-0.00,128,0,-0.00719,0.06227,9.97286,-0.01292,-0.01026,-0.00773
708,128,0.01,0.00,-0.00,128,0,-0.05030,0.10299,9.94652,-0.01159,-0.01199,-0.00520
718,128,0.01,0.01,-0.00,128,0,-0.02874,0.06706,9.97526,-0.01066,-0.01053,-0.00640
728,128,-0.00,0.01,-0.00,128,0,-0.02156,0.05030,9.97526,-0.01266,-0.01053,-0.00666
738,128,0.00,0.01,-0.00,128,0,-0.01916,0.06227,9.94412,-0.01212,-0.01092,-0.00719
748,128,-0.00,0.02,-0.00,128,0,-0.05030,0.04072,9.95849,-0.01212,-0.01119,-0.00400
758,128,0.00,0.02,-0.00,128,0,0.00240,0.09820,9.95610,-0.01092,-0.01506,-0.00506
768,128,0.02,0.02,-0.00,128,0,-0.01916,0.08383,9.98244,-0.01412,-0.00986,-0.00506
778,128,0.02,0.02,-0.00,128,0,-0.03593,0.04072,9.98005,-0.01106,-0.01132,-0.00679
788,128,0.01,0.03,-0.00,128,0,-0.03114,0.06227,9.97286,-0.01146,-0.01212,-0.00493
798,128,0.01,0.03,-0.00,128,0,0.00958,0.07664,9.95370,-0.01132,-0.01053,-0.00706
808,128,0.01,0.02,-0.00,128,0,-0.00240,0.05988,9.96807,-0.01212,-0.01172,-0.00626
818,128,-0.00,0.01,-0.00,128,0,-0.00719,0.04311,9.91538,-0.01332,-0.01266,-0.00453
828,128,-0.01,0.02,-0.00,128,0,-0.03593,0.05269,9.95131,-0.01146,-0.00919,-0.00413
838,128,-0.02,0.01,-0.00,128,0,-0.01677,0.04551,9.94891,-0.01159,-0.01332,-0.00719
848,128,-0.02,-0.00,-0.00,128,0,0.00240,0.07185,9.96807,-0.01146,-0.01239,-0.00520
858,128,-0.01,0.00,-0.00,128,0,-0.01437,0.06946,9.98723,-0.00893,-0.01226,-0.00626
868,128,-0.02,-0.01,-0.00,128,0,0.00240,0.05030,9.94891,-0.01239,-0.01119,-0.00653
878,128,-0.01,-0.00,-0.00,128,0,-0.01437,0.06467,9.93933,-0.01119,-0.01319,-0.00733
888,128,0.01,-0.00,-0.00,128,0,-0.01916,0.08622,9.97286,-0.01279,-0.01119,-0.00746
898,128,0.01,-0.00,-0.00,128,0,-0.01437,0.05988,9.96807,-0.01266,-0.01066,-0.00560
908,128,0.00,0.00,-0.00,128,0,-0.01916,0.05509,9.93694,-0.01266,-0.01359,-0.00480
918,128,-0.01,-0.01,-0.00,128,0,0.00958,0.04790,9.96807,-0.01106,-0.01346,-0.00586
928,128,-0.01,-0.01,-0.00,128,0,-0.03593,0.08862,9.97286,-0.01119,-0.01226,-0.00613
938,128,0.01,-0.01,0.00,128,0,-0.00479,0.08143,9.95849,-0.01226,-0.01386,-0.00600
948,128,0.01,-0.01,0.00,128,0,-0.05269,0.05269,9.95370,-0.01119,-0.01092,-0.00560
958,128,0.01,0.00,0.00,128,0,-0.04072,0.05988,9.93454,-0.01386,-0.00999,-0.00546
968,128,0.01,0.01,0.00,128,0,-0.00240,0.05988,9.96328,-0.01292,-0.01119,-0.00733
978,128,-0.01,0.01,0.00,128,0,-0.02156,0.05509,9.97765,-0.01132,-0.01066,-0.00560
988,128,-0.02,0.01,0.00,128,0,0.01437,0.04551,9.96328,-0.01172,-0.01399,-0.00440
998,128,-0.02,0.00,0.00,128,0,-0.02156,0.08143,9.96089,-0.01186,-0.01079,-0.00533
1008,128,-0.01,0.01,0.00,128,0,-0.02395,0.06706,9.96568,-0.00959,-0.01252,-0.00733
1018,128,-0.01,0.01,0.00,128,0,0.00958,0.05988,9.94652,-0.01252,-0.01319,-0.00733
1028,128,-0.01,0.02,0.00,128,0,-0.05509,0.05748,9.96089,-0.01399,-0.00906,-0.00466
1038,128,0.01,0.02,0.00,128,0,-0.02395,0.07904,9.97286,-0.00893,-0.01252,-0.00600
1048,128,0.00,0.03,0.00,128,0,-0.02874,0.06467,9.97526,-0.01386,-0.01212,-0.00280
1058,128,0.01,0.03,0.00,128,0,-0.03114,0.06706,9.96328,-0.01239,-0.01239,-0.00466
1068,128,0.01,0.05,0.00,128,0,-0.04551,0.06467,9.98005,-0.01186,-0.01266,-0.00506
1078,128,0.01,0.05,0.00,128,0,-0.01677,0.05748,9.94173,-0.01346,-0.01332,-0.00600
1088,128,0.00,0.04,0.00,128,0,-0.00958,0.05030,9.95610,-0.01452,-0.01332,-0.00719
1098,128,0.01,0.03,0.00,128,0,-0.00719,0.08383,9.96328,-0.01346,-0.01239,-0.00493
1108,128,0.01,0.03,0.00,128,0,-0.07425,0.05748,9.94412,-0.01172,-0.01079,-0.00546
1118,128,0.01,0.03,0.00,128,0,-0.00958,0.06706,9.96807,-0.01479,-0.01346,-0.00506
1128,128,0.02,0.02,0.00,128,0,-0.01198,0.08622,9.98963,-0.01172,-0.01332,-0.00520
1138,128,0.02,0.02,0.00,128,0,-0.02395,0.07185,9.97765,-0.01039,-0.01132,-0.00480
1148,128,0.02,0.03,0.00,128,0,-0.02635,0.04790,9.96328,-0.00999,-0.00973,-0.00360
1158,128,0.02,0.02,0.00,128,0,0.00240,0.08862,9.93454,-0.01359,-0.01039,-0.00586
1168,128,0.02,0.01,0.00,128,0,-0.00958,0.06706,9.96568,-0.01132,-0.00893,-0.00733
1178,128,0.01,0.00,0.00,128,0,-0.00958,0.04072,9.97047,-0.01199,-0.01452,-0.00640
1188,128,0.00,0.00,0.00,128,0,-0.02874,0.05748,9.96568,-0.01119,-0.00986,-0.00666
1198,128,0.01,0.01,0.00,128,0,-0.02156,0.07664,9.95131,-0.01212,-0.01092,-0.00560
1208,128,0.01,0.01,0.00,128,0,-0.01916,0.06227,9.96568,-0.01252,-0.01159,-0.00453
1218,128,0.01,0.01,0.00,128,0,-0.00479,0.10778,9.97765,-0.01359,-0.01053,-0.00613
1228,128,0.01,0.00,0.00,128,0,-0.01437,0.03353,9.95131,-0.01146,-0.01092,-0.00480
1238,128,0.01,0.00,0.00,128,0,-0.02395,0.09820,9.97765,-0.01119,-0.01132,-0.00719
1248,128,0.03,0.01,0.00,128,0,-0.02395,0.08622,9.97526,-0.01386,-0.01146,-0.00666
1258,128,0.03,0.01,0.00,128,0,-0.01677,0.07425,9.98005,-0.01053,-0.01172,-0.00666
1268,128,0.05,0.00,0.00,128,0,-0.00240,0.09820,9.96089,-0.00999,-0.01306,-0.00626
1278,128,0.05,0.01,0.00,128,0,-0.03832,0.06227,9.97047,-0.00959,-0.01212,-0.00453
1288,128,0.04,0.01,0.00,128,0,-0.02395,0.05988,9.95370,-0.01092,-0.01172,-0.00360
1298,128,0.04,0.00,0.00,128,0,-0.01437,0.06227,9.97765,-0.01172,-0.01172,-0.00613
1308,128,0.04,-0.02,0.00,128,0,0.00240,0.06467,9.95610,-0.01199,-0.01146,-0.00466
1318,128,0.03,-0.02,0.00,128,0,-0.00958,0.05988,10.06866,-0.01172,-0.01013,-0.00360
1328,128,0.03,-0.04,0.00,128,0,0.02635,0.07664,9.95610,-0.01452,-0.00906,-0.00613
1338,128,0.03,-0.04,0.00,128,0,-0.04072,0.06227,9.94173,-0.01199,-0.01226,-0.00426
1348,128,0.02,-0.04,0.00,128,0,-0.00479,0.05988,9.98723,-0.01212,-0.01132,-0.00440
1358,128,0.02,-0.05,0.00,128,0,-0.00479,0.08383,9.94891,-0.01053,-0.00906,-0.00546
1368,128,0.02,-0.06,0.00,128,0,0.00958,0.06706,9.92017,-0.01359,-0.00946,-0.00799
1378,128,0.02,-0.06,0.00,128,0,-0.03593,0.04072,9.96328,-0.01372,-0.01199,-0.00546
1388,128,0.02,-0.06,0.00,128,0,-0.03353,0.08383,9.97047,-0.01372,-0.01159,-0.00573
1398,128,0.01,-0.05,0.00,128,0,-0.01437,0.05509,9.97047,-0.01239,-0.00999,-0.00306
1408,128,0.01,-0.04,0.00,128,0,-0.01916,0.05269,9.98484,-0.01092,-0.01239,-0.00640
1418,128,0.01,-0.04,0.00,128,0,-0.01437,0.06467,9.97047,-0.00853,-0.00999,-0.00679
1428,128,0.02,-0.04,0.00,128,0,-0.01198,0.06946,9.92257,-0.01346,-0.01053,-0.00626
1438,128,0.02,-0.03,0.00,128,0,-0.02156,0.06467,9.95849,-0.01132,-0.01079,-0.00706
1448,128,0.02,-0.02,0.00,128,0,-0.05509,0.06946,9.96089,-0.01092,-0.01226,-0.00506
1458,128,0.01,0.00,0.00,128,0,-0.04311,0.05988,9.96089,-0.01026,-0.01146,-0.00453
1468,128,0.01,0.01,0.00,128,0,-0.00240,0.07904,9.94173,-0.01292,-0.01359,-0.00466
1478,128,0.02,0.01,0.00,128,0,0.00479,0.08622,9.95370,-0.01132,-0.01292,-0.00386
1488,128,0.01,0.01,0.00,128,0,-0.01916,0.05030,9.95610,-0.01292,-0.00879,-0.00679
1498,128,-0.01,0.01,0.00,128,0,-0.02156,0.03353,9.94652,-0.01292,-0.01266,-0.00679
1508,128,-0.02,0.00,0.00,128,0,-0.00479,0.04790,9.98484,-0.01319,-0.01266,-0.00333
1518,128,-0.02,0.01,0.00,128,0,-0.02874,0.06467,9.94652,-0.01346,-0.01106,-0.00733
1528,128,-0.02,0.00,0.00,128,0,-0.01198,0.05269,9.95610,-0.01252,-0.01212,-0.00653
1538,128,-0.02,-0.01,0.00,128,0,-0.00479,0.06946,9.96568,-0.01226,-0.00919,-0.00480
1548,128,-0.00,-0.02,0.00,128,0,0.00000,0.08143,9.94173,-0.01199,-0.01279,-0.00759
1558,128,0.00,-0.02,0.00,128,0,-0.02874,0.01916,9.93454,-0.01412,-0.01372,-0.00679
1568,128,0.00,-0.01,0.00,128,0,-0.01677,0.06467,9.96807,-0.01346,-0.01039,-0.00693
1578,128,0.01,-0.01,0.00,128,0,-0.02395,0.09101,9.97047,-0.01386,-0.01332,-0.00520
1588,128,0.02,-0.01,0.00,128,0,0.01437,0.06706,9.95131,-0.01186,-0.01199,-0.00440
1598,128,0.01,-0.01,0.00,128,0,-0.01916,0.04790,9.95370,-0.01226,-0.01159,-0.00480
1608,128,0.00,-0.00,0.00,128,0,-0.02874,0.04551,9.95370,-0.01506,-0.01106,-0.00520
1618,128,-0.00,0.00,0.00,128,0,-0.01198,0.08383,9.95131,-0.01452,-0.01426,-0.00666
1628,128,0.01,-0.01,0.00,128,0,-0.00240,0.07664,9.94891,-0.01372,-0.01359,-0.00520
1638,128,0.02,-0.00,0.00,128,0,-0.04551,0.10538,9.94891,-0.01199,-0.01186,-0.00586
1648,128,0.02,0.00,0.00,128,0,-0.02395,0.06946,9.95610,-0.01239,-0.01066,-0.00613
1658,128,0.02,-0.00,0.00,128,0,0.01677,0.07664,9.98244,-0.01239,-0.01212,-0.00626
1668,128,0.04,-0.01,0.00,128,0,-0.00958,0.08383,9.97047,-0.00906,-0.01226,-0.00386
1678,128,0.04,0.00,0.00,128,0,-0.05030,0.07425,9.93454,-0.01066,-0.01079,-0.00693
1688,128,0.05,-0.00,0.00,128,0,-0.01437,0.07664,9.95849,-0.01172,-0.01132,-0.00733
1698,128,0.06,0.00,0.00,128,0,-0.02156,0.08622,9.95131,-0.01119,-0.01239,-0.00386
1708,128,0.06,-0.00,0.00,128,0,-0.00958,0.07904,9.95849,-0.01252,-0.01172,-0.00573
1718,128,0.06,0.01,0.00,128,0,-0.02635,0.06706,9.97526,-0.01132,-0.01266,-0.00706
1728,128,0.05,0.00,0.00,128,0,-0.00240,0.05269,10.03753,-0.01199,-0.01426,-0.00480
1738,128,0.05,-0.01,0.00,128,0,-0.00479,0.08143,9.86509,-0.01172,-0.01079,-0.00613
1748,128,0.05,-0.00,0.00,128,0,-0.06227,0.05269,9.92736,-0.01212,-0.01346,-0.00546
1758,128,0.05,-0.01,0.00,128,0,0.00000,0.06467,9.97765,-0.01199,-0.01426,-0.00426
1768,128,0.03,-0.02,0.00,128,0,0.00000,0.03832,9.95370,-0.01013,-0.01226,-0.00573
1778,128,0.03,-0.01,0.00,128,0,-0.02874,0.06467,9.93694,-0.01279,-0.01053,-0.00560
1788,128,0.03,-0.00,0.00,128,0,-0.02635,0.06706,9.95370,-0.01159,-0.00999,-0.00560
1798,128,0.03,-0.00,0.00,128,0,-0.01916,0.06467,9.92736,-0.01146,-0.01212,-0.00640
1808,128,0.03,0.00,0.00,128,0,-0.02395,0.07185,9.92736,-0.01226,-0.01332,-0.00693
1818,128,0.05,0.01,0.00,128,0,-0.02395,0.09341,9.95610,-0.01212,-0.01159,-0.00813
1828,128,0.05,0.01,0.00,128,0,-0.01916,0.05748,9.95370,-0.01306,-0.01306,-0.00520
1838,128,0.04,0.01,0.00,128,0,-0.01916,0.04551,9.96328,-0.01079,-0.00986,-0.00600
1848,128,0.04,0.01,0.00,128,0,-0.02635,0.07425,9.99202,-0.01439,-0.01386,-0.00640
1858,128,0.04,0.01,0.00,128,0,-0.00958,0.03832,9.95610,-0.01106,-0.00973,-0.00533
1868,128,0.02,0.01,0.00,128,0,0.00958,0.03114,9.97286,-0.01186,-0.01439,-0.00333
1878,128,0.02,0.00,0.00,128,0,-0.02874,0.08143,9.94891,-0.01159,-0.01306,-0.00426
1888,128,0.00,-0.00,0.00,128,0,-0.00719,0.04790,9.95370,-0.01199,-0.00999,-0.00600
1898,128,0.00,-0.01,0.00,128,0,-0.00240,0.06227,9.93933,-0.01119,-0.01266,-0.00506
1908,128,0.01,-0.01,0.00,128,0,-0.03353,0.07904,9.96568,-0.01252,-0.01226,-0.00626
1918,128,0.01,-0.02,0.00,128,0,0.00000,0.06467,9.96568,-0.01186,-0.01359,-0.00706
1928,128,0.00,-0.01,0.00,128,0,-0.02874,0.05269,9.93215,-0.01359,-0.01092,-0.00573
1938,128,0.01,-0.01,0.00,128,0,-0.02156,0.06227,9.96089,-0.01159,-0.01159,-0.00666
1948,128,0.03,0.00,0.00,128,0,-0.03114,0.09101,9.96328,-0.01292,-0.01079,-0.00600
1958,128,0.03,0.01,0.00,128,0,0.00479,0.03593,9.96328,-0.01212,-0.01079,-0.00480
1968,128,0.03,0.01,0.00,128,0,-0.03114,0.03353,9.96807,-0.01306,-0.01252,-0.00693
1978,128,0.03,0.01,0.00,128,0,-0.01198,0.06946,9.95131,-0.01013,-0.01212,-0.00733
1988,128,0.04,-0.01,0.00,128,0,0.02395,0.08622,9.94891,-0.01092,-0.01186,-0.00360
1998,128,0.03,-0.01,0.00,128,0,-0.02395,0.03593,9.95849,-0.01146,-0.01092,-0.00280
2008,128,0.02,-0.01,0.00,128,0,-0.02156,0.03593,9.96328,-0.01026,-0.01226,-0.00719
2018,128,-0.00,-0.02,0.00,128,0,-0.00958,0.03832,9.97286,-0.01159,-0.01119,-0.00759
2028,128,-0.01,-0.02,0.00,128,0,-0.01677,0.08383,9.97526,-0.01266,-0.01359,-0.00440
2038,128,-0.01,-0.02,0.00,128,0,-0.02635,0.06946,9.96089,-0.01159,-0.01079,-0.00839
2048,128,0.00,-0.02,0.00,128,0,0.01677,0.08862,9.92736,-0.01226,-0.01106,-0.00653
2058,128,-0.00,-0.02,0.00,128,0,-0.01916,0.05030,9.97765,-0.01279,-0.01332,-0.00466
2068,128,0.00,-0.01,0.00,128,0,-0.03353,0.07185,9.96568,-0.01359,-0.00853,-0.00560
2078,128,-0.01,-0.00,0.00,128,0,-0.02395,0.02395,9.98963,-0.01172,-0.01399,-0.00480
2088,128,-0.01,0.02,0.00,128,0,-0.04311,0.05269,9.94412,-0.01119,-0.01279,-0.00626
2098,128,-0.02,0.02,0.00,128,0,-0.02635,0.05030,9.92017,-0.01319,-0.01252,-0.00666
2108,128,-0.02,0.04,0.01,128,0,-0.03114,0.05269,9.96089,-0.01092,-0.01146,-0.00786
2118,128,-0.00,0.05,0.01,128,0,-0.03832,0.09820,9.95849,-0.01386,-0.01266,-0.00466
2128,128,-0.00,0.05,0.01,128,0,-0.02874,0.04311,9.95610,-0.01266,-0.01599,-0.00653
2138,128,-0.00,0.05,0.01,128,0,0.01198,0.07425,9.95849,-0.01119,-0.01279,-0.00426
2148,128,0.01,0.04,0.01,128,0,-0.01437,0.07904,9.94173,-0.01212,-0.01292,-0.00573
2158,128,0.02,0.03,0.01,128,0,-0.00719,0.07904,9.96568,-0.00973,-0.01092,-0.00546
2168,128,0.03,0.03,0.01,128,0,-0.03114,0.08862,9.94412,-0.01106,-0.01146,-0.00613
2178,128,0.02,0.02,0.01,128,0,-0.00958,0.06706,10.01358,-0.01159,-0.01119,-0.00466
2188,128,0.02,0.02,0.01,128,0,-0.04551,0.05988,9.99442,-0.01359,-0.01066,-0.00666
2198,128,0.03,0.04,0.01,128,0,-0.03593,0.06946,9.92257,-0.01292,-0.01292,-0.00453
2208,128,0.02,0.05,0.01,128,0,-0.03593,0.04311,9.98963,-0.01053,-0.01506,-0.00520
2218,128,0.01,0.04,0.01,128,0,-0.00240,0.05269,9.95849,-0.01146,-0.01159,-0.00679
2228,128,0.02,0.05,0.01,128,0,-0.03832,0.08383,9.97526,-0.01252,-0.01013,-0.00453
2238,128,0.03,0.04,0.01,128,0,-0.00719,0.09341,9.96807,-0.01132,-0.01452,-0.00546
2248,128,0.03,0.03,0.01,128,0,-0.00719,0.05269,9.93694,-0.01439,-0.01292,-0.00506
2258,128,0.03,0.03,0.01,128,0,-0.02874,0.09101,9.97047,-0.01412,-0.01306,-0.00360
2268,128,0.03,0.03,0.01,128,0,-0.01198,0.02395,9.95849,-0.01159,-0.01479,-0.00520
2278,128,0.02,0.04,0.01,128,0,-0.04551,0.04072,9.95849,-0.01372,-0.01239,-0.00453
2288,128,0.01,0.03,0.01,128,0,-0.01437,0.04790,10.01358,-0.01106,-0.01039,-0.00533
2298,128,0.00,0.04,0.01,128,0,-0.04790,0.06227,9.96807,-0.01186,-0.01212,-0.00653
2308,128,0.01,0.04,0.00,128,0,-0.01677,0.09580,9.97526,-0.01092,-0.01266,-0.00626
2318,128,0.01,0.05,0.00,128,0,-0.05030,0.05988,9.94891,-0.01346,-0.01053,-0.00600
2328,128,0.01,0.05,0.00,128,0,-0.00958,0.06467,9.96807,-0.01106,-0.01092,-0.00640
2338,128,0.00,0.05,0.00,128,0,-0.02395,0.05988,9.92017,-0.01159,-0.01212,-0.00733
2348,128,-0.01,0.04,0.01,128,0,0.00719,0.04790,9.97286,-0.01186,-0.01199,-0.00733
2358,128,-0.01,0.03,0.01,128,0,-0.01198,0.10059,9.98484,-0.00986,-0.00826,-0.00679
2368,128,-0.00,0.04,0.01,128,0,-0.01916,0.06706,9.95131,-0.01079,-0.01252,-0.00626
2378,128,0.00,0.03,0.01,128,0,-0.01916,0.06706,9.96568,-0.01359,-0.01159,-0.00600
2388,128,-0.01,0.03,0.01,128,0,-0.04551,0.02635,9.96089,-0.01266,-0.01079,-0.00533
2398,128,-0.00,0.04,0.01,128,0,-0.04790,0.07425,9.90580,-0.01092,-0.01426,-0.00386
2408,128,0.00,0.04,0.01,128,0,-0.01198,0.08143,9.96328,-0.01585,-0.01039,-0.00480
2418,128,0.00,0.04,0.01,128,0,-0.03114,0.05748,9.93215,-0.01132,-0.01146,-0.00480
2428,128,-0.00,0.04,0.01,128,0,-0.01677,0.05748,9.93694,-0.01013,-0.00946,-0.00413
2438,128,0.00,0.04,0.01,128,0,-0.01916,0.06706,9.96328,-0.01199,-0.01079,-0.00293
2448,128,0.02,0.04,0.01,128,0,-0.03353,0.09101,9.94652,-0.01079,-0.00946,-0.00773
2458,128,0.02,0.05,0.01,128,0,-0.02635,0.06706,9.96089,-0.01506,-0.01132,-0.00546
2468,128,0.01,0.05,0.01,128,0,-0.03832,0.05030,9.95131,-0.01146,-0.01199,-0.00560
2478,128,0.00,0.05,0.01,128,0,-0.00479,0.04311,9.98005,-0.01212,-0.01386,-0.00453
2488,128,0.00,0.05,0.01,128,0,-0.07904,0.08143,9.95610,-0.01359,-0.01266,-0.00400
2498,128,0.00,0.05,0.00,128,0,0.07664,0.08862,9.68785,-0.01306,-0.02558,-0.00426
2508,128,0.00,0.05,0.00,128,0,-0.24190,0.09820,9.74294,-0.01026,0.00453,-0.00759
2518,128,-0.01,0.06,0.00,128,0,-0.03593,0.04790,9.81719,-0.00959,-0.00906,-0.00640
2528,128,-0.01,0.06,0.00,128,0,0.07664,0.07185,9.94891,-0.01585,-0.01426,-0.00866
2538,128,-0.03,0.04,0.00,128,0,0.00958,0.01437,10.26984,-0.00746,-0.00293,-0.00613
2548,128,-0.05,0.04,0.01,128,0,-0.01916,0.02156,10.05908,-0.01785,-0.00733,-0.00440
2558,128,-0.07,0.03,0.01,128,0,0.02156,0.00479,10.15249,-0.01119,-0.01252,-0.00520
2568,128,-0.08,0.01,0.01,128,0,0.01916,0.08622,9.92496,-0.01013,-0.01705,-0.00866
2578,128,-0.09,-0.01,0.01,128,0,0.07185,0.08622,10.11656,-0.01532,-0.00626,-0.00706
2588,128,-0.08,-0.02,0.01,128,0,-0.05748,0.07185,9.91299,-0.00560,-0.01106,-0.00413
2598,128,-0.08,-0.04,0.01,128,0,0.07425,0.06706,9.81719,-0.01532,-0.01386,-0.00759
2608,128,-0.08,-0.04,0.01,128,0,-0.06227,0.00958,10.04711,-0.00973,-0.01266,-0.00400
2618,128,-0.08,-0.06,0.01,128,0,0.06706,0.05030,10.04711,-0.01239,-0.00999,-0.00546
2628,128,-0.08,-0.07,0.01,128,0,-0.07664,0.07185,9.84593,-0.01452,-0.00773,-0.00679
2638,128,-0.07,-0.07,0.01,128,0,-0.01198,0.11257,10.09980,-0.01212,-0.01412,-0.00480
2648,128,-0.05,-0.08,0.01,128,0,0.02156,0.08383,10.05908,-0.01252,-0.01226,-0.00306
2658,128,-0.03,-0.08,0.01,128,0,-0.05988,0.11975,9.97286,-0.01013,-0.00786,-0.00440
2668,128,-0.01,-0.07,0.01,128,0,-0.01916,0.09341,9.98005,-0.01239,-0.01359,-0.00453
2678,128,0.02,-0.07,0.01,128,0,0.07904,0.12933,10.00639,-0.01026,-0.01292,-0.00759
2688,128,0.03,-0.08,0.01,128,0,0.01677,0.05748,9.91059,-0.01199,-0.01532,-0.00679
2698,128,0.02,-0.08,0.01,128,0,-0.03593,0.00958,9.92975,-0.00959,-0.01745,-0.00120
2708,128,0.02,-0.07,0.01,128,0,-0.05269,0.04311,9.96089,-0.01466,-0.01199,-0.00666
2718,128,0.02,-0.07,0.01,128,0,0.00958,0.07425,9.98005,-0.01332,-0.01945,-0.00666
2728,128,0.02,-0.08,0.01,128,0,0.01916,0.05748,9.99681,-0.01346,-0.01479,-0.00546
2738,128,0.01,-0.08,0.01,128,0,-0.18442,0.09341,9.98484,-0.01452,-0.01479,-0.00266
2748,128,0.01,-0.07,0.01,128,0,-0.11975,0.02635,9.98005,-0.01492,-0.00773,-0.00786
2758,128,0.01,-0.04,0.01,128,0,-0.06706,0.07904,10.01358,-0.01079,-0.00560,-0.00973
2768,128,0.01,-0.04,0.01,128,0,0.05269,0.09580,9.95370,-0.01492,-0.00560,-0.00759
2778,128,0.01,-0.04,0.01,128,0,0.05030,0.00000,10.03513,-0.00773,-0.01146,-0.00493
2788,128,0.00,-0.05,0.01,128,0,0.05030,0.04072,9.94891,-0.01266,-0.01092,-0.00613
2798,128,-0.02,-0.06,0.01,128,0,0.00479,-0.00240,9.88185,-0.01172,-0.01292,-0.00306
2808,128,-0.02,-0.06,0.01,128,0,0.00000,0.05988,9.93454,-0.00959,-0.01306,-0.00386
2818,128,-0.02,-0.06,0.01,128,0,-0.02874,0.08622,9.71420,-0.01106,-0.01346,-0.00413
2828,128,-0.00,-0.06,0.01,128,0,-0.01677,0.12694,10.00160,-0.01053,-0.01785,-0.00280
2838,128,0.01,-0.04,0.01,128,0,-0.06467,0.09341,10.06387,-0.00919,-0.00999,-0.00293
2848,128,0.04,-0.02,0.01,128,0,-0.07904,0.12215,9.98005,-0.01266,-0.00946,-0.00560
2858,128,0.04,-0.00,0.00,128,0,-0.04072,0.08143,9.99442,-0.01079,-0.01279,-0.00520
2868,128,0.04,0.01,0.00,128,0,-0.03114,0.03593,9.95370,-0.01212,-0.01079,-0.00613
2878,128,0.02,0.02,0.00,128,0,-0.03114,0.04790,9.89622,-0.01332,-0.00919,-0.00546
2888,128,0.00,0.01,0.00,128,0,-0.02635,0.04072,9.94891,-0.01066,-0.00933,-0.00626
2898,128,-0.01,0.00,0.00,128,0,0.02395,0.05269,9.99202,-0.01359,-0.01292,-0.00533
2908,128,-0.02,0.00,0.00,128,0,-0.02635,0.03832,9.99442,-0.01159,-0.01106,-0.00799
2918,128,-0.03,-0.01,0.00,128,0,0.05509,0.04072,9.97047,-0.01239,-0.01146,-0.00586
2928,128,-0.04,-0.01,0.00,128,0,-0.03353,0.06227,9.92975,-0.01159,-0.01172,-0.00493
2938,128,-0.05,-0.01,0.00,128,0,-0.01437,0.04311,9.97047,-0.01239,-0.01039,-0.00453
2948,128,-0.05,-0.01,0.00,128,0,-0.00719,0.08383,9.95849,-0.01226,-0.01079,-0.00666
2958,128,-0.05,-0.01,0.00,128,0,-0.02635,0.10778,9.95370,-0.00839,-0.01239,-0.00560
2968,128,-0.04,-0.02,0.00,128,0,0.03353,0.04072,9.98723,-0.01519,-0.01186,-0.00453
2978,128,-0.04,-0.02,0.00,128,0,-0.02395,0.05269,9.96328,-0.01306,-0.01306,-0.00506
2988,128,-0.03,-0.01,0.00,128,0,-0.02395,0.06227,9.97286,-0.00879,-0.01266,-0.00506
2998,128,-0.03,-0.01,0.00,128,0,-0.00240,0.04551,9.90820,-0.01346,-0.01212,-0.00480
3008,128,-0.02,-0.00,0.00,128,0,-0.01677,0.06227,9.95131,-0.00999,-0.00986,-0.00640
3018,128,-0.02,0.00,0.00,128,0,-0.02874,0.02874,9.93694,-0.01319,-0.01039,-0.00560
3028,128,-0.02,-0.00,0.00,128,0,-0.00719,0.06946,9.94891,-0.01346,-0.01092,-0.00613
3038,128,-0.02,-0.01,0.00,128,0,0.00958,0.05030,9.98005,-0.01053,-0.01186,-0.00640
3048,128,-0.01,-0.02,0.00,128,0,-0.01437,0.09341,9.95131,-0.01252,-0.01159,-0.00560
3058,128,-0.02,-0.02,0.00,128,0,-0.03353,0.03832,9.92975,-0.01226,-0.01159,-0.00426
3068,128,-0.01,-0.00,0.00,128,0,-0.06946,0.06946,9.95849,-0.01306,-0.01279,-0.00706
3078,128,-0.02,0.00,0.00,128,0,-0.01677,0.03353,9.94652,-0.01146,-0.01239,-0.00746
3088,128,-0.02,0.01,0.00,128,0,-0.02395,0.07185,9.94173,-0.01132,-0.01146,-0.00520
3098,128,-0.03,0.01,0.00,128,0,-0.01916,0.04072,9.93694,-0.00986,-0.00986,-0.00413
3108,128,-0.03,-0.00,0.00,128,0,0.00479,0.04790,9.95610,-0.01132,-0.01079,-0.00560
3118,128,-0.03,-0.01,0.00,128,0,-0.01198,0.10059,9.97047,-0.01186,-0.01279,-0.00533
3128,128,-0.03,-0.01,0.00,128,0,-0.01437,0.04790,9.95131,-0.01039,-0.00959,-0.00759
3138,128,-0.03,-0.02,0.00,128,0,0.01437,0.07664,9.98244,-0.00946,-0.00919,-0.00520
3148,128,-0.02,-0.01,0.00,128,0,-0.00719,0.06467,9.94173,-0.01319,-0.01172,-0.00560
3158,128,-0.03,-0.02,0.00,128,0,-0.00240,0.04790,9.96328,-0.01186,-0.01266,-0.00679
3168,128,-0.03,-0.01,0.00,128,0,-0.02874,0.06467,9.97047,-0.01146,-0.01053,-0.00573
3178,128,-0.01,-0.01,0.00,128,0,-0.00240,0.08383,9.95131,-0.01332,-0.01092,-0.00560
3188,128,0.00,-0.01,0.00,128,0,-0.01437,0.08383,9.96089,-0.01186,-0.01399,-0.00560
3198,128,0.01,-0.00,0.00,128,0,-0.05030,0.05988,9.98005,-0.01266,-0.01146,-0.00626
3208,128,0.01,0.00,0.00,128,0,0.01437,0.03353,9.95849,-0.01279,-0.00946,-0.00493
3218,128,0.02,0.01,0.00,128,0,-0.02874,0.07425,9.96328,-0.01266,-0.01146,-0.00453
3228,128,0.02,0.02,0.00,128,0,-0.03593,0.04311,9.95131,-0.01386,-0.01092,-0.00600
3238,128,0.02,0.02,0.00,128,0,-0.02156,0.06946,9.96089,-0.01226,-0.01226,-0.00453
3248,128,0.01,0.03,0.00,128,0,-0.02874,0.05269,9.94891,-0.01212,-0.01239,-0.00586
3258,128,0.00,0.02,0.00,128,0,0.00240,0.05030,9.96089,-0.01172,-0.01079,-0.00706
3268,128,0.01,0.02,0.00,128,0,-0.02635,0.08862,9.97526,-0.01199,-0.01132,-0.00546
3278,128,0.01,0.00,0.00,128,0,0.00479,0.07185,9.93694,-0.01212,-0.01252,-0.00786
3288,128,0.01,0.00,0.00,128,0,-0.02635,0.03832,9.95610,-0.01372,-0.01292,-0.00666
3298,128,0.01,0.00,0.00,128,0,-0.01916,0.06706,9.94891,-0.01172,-0.01332,-0.00679
3308,128,0.02,0.02,0.01,128,0,-0.04311,0.08383,9.97765,-0.01146,-0.01412,-0.00613
3318,128,0.02,0.03,0.01,128,0,-0.03593,0.06706,9.98005,-0.01186,-0.00986,-0.00679
3328,128,0.01,0.03,0.01,128,0,-0.01916,0.05269,9.98005,-0.01332,-0.01266,-0.00666
3338,128,0.02,0.02,0.01,128,0,-0.01677,0.06946,9.95131,-0.01239,-0.00919,-0.00573
3348,128,0.01,0.01,0.01,128,0,-0.00958,0.06706,9.94412,-0.01239,-0.01306,-0.00640
3358,128,0.01,0.01,0.01,128,0,-0.05269,0.06467,9.98244,-0.01279,-0.01399,-0.00746
3368,128,0.02,0.00,0.01,128,0,0.00479,0.07904,9.96568,-0.01026,-0.01506,-0.00666
3378,128,0.03,0.01,0.01,128,0,-0.06227,0.09820,9.97286,-0.01266,-0.01452,-0.00706
3388,128,0.03,-0.00,0.01,128,0,0.00240,0.06467,9.95131,-0.00919,-0.00959,-0.00626
3398,128,0.02,-0.02,0.01,128,0,0.00958,0.06227,9.94891,-0.01199,-0.01039,-0.00719
3408,128,0.02,-0.02,0.01,128,0,-0.00240,0.06227,9.96089,-0.01266,-0.01266,-0.00533
3418,128,0.03,-0.02,0.01,128,0,-0.01437,0.06946,10.02555,-0.01026,-0.01106,-0.00706
3428,128,0.02,-0.02,0.01,128,0,0.00958,0.03832,9.93454,-0.01252,-0.01106,-0.00586
3438,128,0.03,-0.03,0.01,128,0,0.13173,0.17005,10.03513,-0.01172,-0.00866,-0.00986
3448,128,0.04,-0.05,0.01,128,0,0.09101,0.14849,10.00639,-0.01172,-0.01146,-0.01026
3458,128,0.05,-0.05,0.01,128,0,-0.07425,0.05988,9.86988,-0.00959,-0.01226,-0.00986
3468,128,0.06,-0.06,0.01,128,0,0.02395,0.16047,9.91059,-0.01519,-0.01359,-0.01212
3478,128,0.09,-0.08,0.02,128,0,0.06467,0.14610,9.98963,-0.01399,-0.01545,-0.01346
3488,128,0.11,-0.10,0.02,128,0,0.06706,0.13173,9.85551,-0.01852,-0.01439,-0.01679
3498,128,0.14,-0.13,0.02,128,0,0.06227,0.19160,9.87706,-0.01985,-0.00586,-0.01226
3508,128,0.16,-0.15,0.02,128,0,0.03593,0.09101,9.98723,-0.02238,-0.00959,-0.00626
3518,128,0.17,-0.16,0.02,128,0,-0.03114,0.08383,9.93215,-0.02785,-0.00573,0.00040
3528,128,0.17,-0.17,0.03,128,0,0.02874,0.10059,9.99681,-0.02891,-0.00147,-0.00666
3538,128,0.16,-0.19,0.03,128,0,0.10778,0.03353,9.98723,-0.03118,-0.00413,-0.01825
3548,128,0.15,-0.20,0.03,128,0,-0.21555,-0.02635,10.08064,-0.03024,-0.00067,-0.02398
3558,128,0.13,-0.20,0.03,128,0,-0.36165,-0.07664,9.72857,-0.03544,-0.00919,-0.02212
3568,128,0.11,-0.18,0.04,128,0,-0.46224,-0.18202,9.95610,-0.02798,-0.00653,-0.00706
3578,128,0.08,-0.16,0.04,128,0,-0.46463,-0.20837,10.06627,-0.02025,-0.00187,0.01985
3588,128,0.05,-0.13,0.04,128,0,-0.28740,-0.27064,9.61840,-0.01572,-0.00799,0.04823
3598,128,0.01,-0.10,0.03,128,0,-0.05988,-0.15328,10.13812,-0.00453,-0.01545,0.05875
3608,128,-0.03,-0.08,0.02,128,0,0.02874,-0.15328,10.19081,0.00586,-0.01785,0.05756
3618,128,-0.08,-0.07,0.01,128,0,0.16765,-0.22034,10.07824,0.01426,-0.01998,0.04716
3628,128,-0.12,-0.08,0.00,128,0,0.34249,-0.01916,10.23152,0.02558,-0.01865,0.03064
3638,128,-0.16,-0.09,-0.01,128,0,0.34728,-0.10059,10.11177,0.03704,-0.02771,0.01079
3648,128,-0.18,-0.12,-0.02,128,0,0.32812,0.03832,10.15967,0.04130,-0.03091,-0.00693
3658,128,-0.20,-0.15,-0.03,128,0,0.22034,0.04311,10.47103,0.05116,-0.01572,-0.03131
3668,128,-0.21,-0.20,-0.03,128,0,0.11736,0.01437,10.13333,0.06075,-0.04210,-0.05143
3678,128,-0.20,-0.25,-0.03,128,0,0.24669,0.21316,10.02076,0.04703,-0.03864,-0.06155
3688,128,-0.20,-0.28,-0.03,128,0,-0.08383,-0.02395,10.26745,0.06595,-0.02265,-0.06675
3698,128,-0.18,-0.31,-0.02,128,0,0.09580,0.22274,9.75492,0.05009,-0.03238,-0.07314
3708,128,-0.15,-0.34,-0.01,128,0,0.11736,0.34249,10.06627,0.04410,-0.05169,-0.07128
3718,128,-0.11,-0.37,-0.00,128,0,-0.32333,0.60833,9.61840,0.03211,-0.03637,-0.06808
3728,128,-0.06,-0.38,0.01,128,0,-0.57001,0.40236,9.56571,0.02065,-0.02092,-0.06075
3738,128,-0.01,-0.38,0.03,128,0,0.01677,0.28022,9.62558,0.00679,-0.00773,-0.05689
3748,128,0.05,-0.38,0.05,128,0,-0.28501,0.67540,9.62319,-0.00520,-0.00573,-0.03504
3758,128,0.10,-0.37,0.06,128,0,-0.34009,0.33530,9.59924,-0.03051,0.00053,-0.00173
3768,128,0.15,-0.35,0.07,128,0,-0.48619,0.23232,10.24110,-0.03957,-0.00853,0.02918
3778,128,0.20,-0.34,0.08,128,0,0.26345,0.28022,10.15967,-0.05289,0.01092,0.05529
3788,128,0.24,-0.32,0.08,128,0,-0.27064,0.25627,9.89383,-0.05449,0.00306,0.09020
3798,128,0.28,-0.30,0.07,128,0,0.00479,0.24669,10.22434,-0.06049,0.00813,0.10432
3808,128,0.32,-0.29,0.06,128,0,0.09580,0.11736,9.81240,-0.06049,0.01252,0.08900
3818,128,0.34,-0.29,0.05,128,0,0.43589,0.04072,9.76689,-0.05476,0.01332,0.07141
3828,128,0.35,-0.29,0.03,128,0,0.22992,-0.22753,10.08064,-0.05116,0.00946,0.05209
3838,128,0.35,-0.30,0.01,128,0,0.28501,-0.37123,10.08782,-0.03744,0.00000,0.02465
3848,128,0.33,-0.30,-0.00,128,0,-0.06227,-0.16765,10.38241,-0.02038,0.00853,0.00866
3858,128,0.31,-0.30,-0.02,128,0,-0.35925,-0.56522,9.81479,-0.00053,-0.00506,0.00706
3868,128,0.28,-0.29,-0.03,128,0,-0.10778,-0.30417,10.54288,0.01652,-0.01172,0.00946
3878,128,0.25,-0.29,-0.04,128,0,0.31375,-0.20358,10.37043,0.03038,-0.02238,-0.01106
3888,128,0.23,-0.30,-0.05,128,0,0.12933,0.10299,10.10219,0.05383,-0.02398,-0.03944
3898,128,0.22,-0.33,-0.06,128,0,0.27303,0.20837,10.00160,0.05995,-0.02944,-0.05889
3908,128,0.22,-0.36,-0.06,128,0,0.40715,0.17244,9.91059,0.05942,-0.03837,-0.08660
3918,128,0.23,-0.40,-0.05,128,0,0.34967,0.11736,10.25547,0.06582,-0.00973,-0.09100
3928,128,0.24,-0.43,-0.05,128,0,-0.30896,0.30896,10.15488,0.07941,-0.03837,-0.05836
3938,128,0.25,-0.44,-0.04,128,0,-0.39997,-0.19879,9.66390,0.05849,-0.01599,-0.02638
3948,128,0.26,-0.45,-0.03,128,0,-0.57241,-0.58917,9.33100,0.07301,-0.04104,-0.01346
3958,128,0.27,-0.45,-0.03,128,0,-0.65145,0.21795,9.81240,0.05662,-0.02598,0.01998
3968,128,0.28,-0.43,-0.02,128,0,-0.26345,0.01677,9.81479,0.04210,-0.01226,0.03837
3978,128,0.30,-0.43,-0.02,128,0,0.07664,0.18681,9.94652,0.03810,-0.02971,0.03224
3988,128,0.34,-0.42,-0.03,128,0,-0.19400,0.94124,9.72857,0.02571,-0.01958,0.02878
3998,128,0.38,-0.41,-0.03,128,0,-0.11975,0.40715,9.63277,0.01186,-0.01599,0.03118
4008,128,0.41,-0.41,-0.03,128,0,0.42152,0.24190,10.02555,0.00693,-0.00506,0.01439
4018,128,0.46,-0.41,-0.04,128,0,0.19879,0.73288,10.73927,0.00187,-0.00520,-0.00493
4028,128,0.51,-0.42,-0.04,128,0,0.13652,0.31614,9.96568,-0.01812,-0.03051,-0.00360
4038,128,0.57,-0.43,-0.05,128,0,0.22513,0.74725,9.91538,-0.01705,-0.02265,-0.00919
4048,128,0.62,-0.45,-0.05,128,0,0.24669,0.22513,9.82916,-0.01412,-0.01399,-0.02425
4058,128,0.67,-0.47,-0.05,128,0,-0.18681,0.44308,9.46991,-0.02065,-0.01519,-0.03277
4068,128,0.70,-0.48,-0.05,128,0,0.14610,0.05269,9.57529,-0.01292,-0.00573,-0.03104
4078,128,0.73,-0.50,-0.04,128,0,0.47182,0.17723,10.03034,-0.01106,-0.00946,-0.02678
4088,128,0.76,-0.52,-0.04,128,0,0.02395,0.23950,9.60403,-0.00306,-0.04730,-0.02012
4098,128,0.78,-0.52,-0.04,128,0,-0.02874,0.11736,9.83395,-0.00853,-0.01945,-0.02078
4108,128,0.79,-0.51,-0.03,128,0,-0.35446,0.16526,9.80042,-0.00520,-0.02372,-0.02478
4118,128,0.80,-0.49,-0.03,128,0,-0.41434,-0.10059,9.70462,-0.01399,-0.01585,-0.01572
4128,128,0.80,-0.47,-0.03,128,0,-0.88137,-0.23711,10.10219,-0.00879,-0.02305,0.02185
4138,128,0.80,-0.44,-0.03,128,0,-0.26585,-0.07664,9.53697,0.00187,-0.03477,0.05702
4148,128,0.78,-0.41,-0.03,128,0,-0.08622,0.07425,10.03992,-0.00493,-0.02571,0.05716
4158,128,0.77,-0.39,-0.04,128,0,0.11496,0.13652,10.06627,-0.00040,-0.03211,0.04303
4168,128,0.76,-0.39,-0.05,128,0,0.60115,0.32093,9.50823,0.00107,-0.03371,0.00080
4178,128,0.75,-0.40,-0.05,128,0,0.53648,0.31614,10.10698,0.00280,-0.02545,-0.01692
4188,128,0.74,-0.41,-0.06,128,0,0.06706,0.05748,10.23871,0.00147,-0.02385,-0.01652
4198,128,0.71,-0.42,-0.06,128,0,0.13652,0.04551,10.20039,0.01013,-0.01279,-0.00973
4208,128,0.71,-0.43,-0.06,128,0,0.04551,0.27064,9.95849,0.01519,-0.00786,0.00320
4218,128,0.70,-0.42,-0.07,128,0,-0.06946,0.17005,9.86509,0.01745,-0.00466,0.00640
4228,128,0.71,-0.41,-0.07,128,0,-0.04551,0.27303,10.13333,0.01998,-0.00107,-0.00826
4238,128,0.72,-0.41,-0.07,128,0,0.23950,0.36165,9.97286,0.01745,0.00093,-0.02785
4248,128,0.74,-0.41,-0.07,128,0,0.14370,0.28261,10.10459,0.01426,-0.00493,-0.04650
4258,128,0.75,-0.42,-0.07,128,0,0.05748,0.15328,9.75731,0.01492,-0.00493,-0.06395
4268,128,0.76,-0.41,-0.06,128,0,-0.31854,0.29219,9.62319,0.00999,-0.00879,-0.06662
4278,128,0.77,-0.39,-0.05,128,0,-0.07185,0.21076,9.96328,0.00719,-0.00693,-0.05729
4288,128,0.77,-0.37,-0.04,128,0,-0.01677,-0.01437,10.02555,0.00586,-0.00759,-0.04836
4298,128,0.78,-0.34,-0.03,128,0,-0.22753,0.20358,9.86269,0.00706,-0.01252,-0.03904
4308,128,0.79,-0.32,-0.02,128,0,-0.02874,0.41913,9.91778,-0.00413,-0.00586,-0.02678
4318,128,0.81,-0.30,-0.01,128,0,0.29698,0.34967,10.16207,-0.00506,-0.00826,-0.02611
4328,128,0.83,-0.30,0.01,128,0,0.28740,0.34009,9.92257,-0.00973,-0.01466,-0.02092
4338,128,0.85,-0.30,0.02,128,0,0.11736,0.39997,9.89383,-0.02012,-0.02278,-0.01972
4348,128,0.89,-0.31,0.03,128,0,0.04311,0.34249,9.70702,-0.02305,-0.01439,-0.02691
4358,128,0.92,-0.30,0.04,128,0,-0.09580,0.23950,10.10219,-0.02691,-0.01865,-0.02451
4368,128,0.94,-0.28,0.05,128,0,-0.19400,0.32812,9.90820,-0.03944,-0.02198,-0.01026
4378,128,0.97,-0.26,0.06,128,0,-0.31854,0.34488,10.07585,-0.03158,-0.02825,0.00466
4388,128,0.99,-0.23,0.06,128,0,-0.31614,0.12933,9.89862,-0.03251,-0.02425,0.02971
4398,128,1.00,-0.19,0.07,128,0,-0.48619,0.02635,10.18841,-0.03304,-0.01452,0.05662
4408,128,1.00,-0.15,0.06,128,0,-0.28261,-0.14610,10.18123,-0.02385,-0.02012,0.06488
4418,128,0.99,-0.12,0.06,128,0,0.17723,0.12215,9.86748,-0.03224,-0.02638,0.05089
4428,128,0.98,-0.11,0.05,128,0,0.38320,0.29459,10.01118,-0.02705,-0.01119,0.03411
4438,128,0.98,-0.11,0.04,128,0,0.33770,0.21555,9.89862,-0.02238,-0.01532,0.00906
4448,128,0.97,-0.12,0.04,128,0,0.50535,0.33291,9.80042,-0.02558,-0.01652,-0.02318
4458,128,0.98,-0.14,0.03,128,0,0.10778,0.39039,10.13572,-0.02292,-0.00107,-0.03597
4468,128,0.97,-0.15,0.03,128,0,0.02156,0.22513,10.03513,-0.01839,-0.00440,-0.03131
4478,128,0.96,-0.15,0.03,128,0,-0.02156,0.14131,10.03274,-0.02212,-0.00786,-0.02944
4488,128,0.96,-0.15,0.03,128,0,0.01198,0.28022,10.10698,-0.02278,-0.00933,-0.02705
4498,128,0.96,-0.15,0.04,128,0,0.00240,0.24669,10.04711,-0.02145,-0.00466,-0.01919
4508,128,0.97,-0.15,0.04,128,0,0.22992,0.19879,9.92017,-0.02451,-0.00733,-0.02358
4518,128,0.98,-0.17,0.04,128,0,0.12694,0.27064,9.94173,-0.02478,-0.00933,-0.03224
4528,128,0.97,-0.18,0.05,128,0,-0.07425,0.07664,9.92736,-0.02731,-0.00999,-0.03144
4538,128,0.96,-0.18,0.05,128,0,-0.03832,0.17244,9.87227,-0.03411,-0.01066,-0.02518
4548,128,0.94,-0.18,0.06,128,0,0.00719,0.17723,9.83156,-0.03451,-0.00640,-0.02078
4558,128,0.90,-0.17,0.07,128,0,0.01677,0.12694,10.14530,-0.03637,-0.01372,-0.01492
4568,128,0.88,-0.17,0.07,128,0,-0.05509,0.36883,9.84832,-0.04157,-0.01892,0.00173
4578,128,0.87,-0.16,0.07,128,0,-0.01677,0.39997,9.57289,-0.04650,-0.02838,0.00933
4588,128,0.86,-0.15,0.08,128,0,-0.31375,0.08383,9.57050,-0.04810,-0.02558,0.01705
4598,128,0.84,-0.13,0.08,128,0,-0.34728,0.13652,9.70941,-0.05423,-0.01079,0.02278
4608,128,0.83,-0.10,0.07,128,0,-0.18681,0.39278,9.94652,-0.06102,0.00386,0.02252
4618,128,0.83,-0.08,0.07,128,0,0.25627,0.29938,10.47582,-0.06075,0.00027,0.01705
4628,128,0.82,-0.08,0.07,128,0,0.35207,0.37123,10.24350,-0.05622,-0.00973,0.02078
4638,128,0.82,-0.09,0.06,128,0,0.36644,0.24429,10.26984,-0.06515,-0.00133,0.01879
4648,128,0.80,-0.09,0.06,128,0,0.07904,-0.02874,9.72617,-0.05995,-0.00013,0.00253
4658,128,0.78,-0.11,0.05,128,0,0.37362,0.17963,9.45075,-0.05769,-0.01212,-0.00906
4668,128,0.76,-0.14,0.05,128,0,0.08862,0.17484,9.88185,-0.07155,0.01039,-0.01692
4678,128,0.73,-0.16,0.05,128,0,-0.03593,0.02395,10.01118,-0.05556,0.00733,-0.01972
4688,128,0.70,-0.16,0.05,128,0,-0.17244,0.16286,9.64714,-0.06981,0.00666,-0.02571
4698,128,0.67,-0.16,0.05,128,0,-0.01916,0.12215,9.97526,-0.06142,0.01306,-0.01945
4708,128,0.65,-0.15,0.05,128,0,0.05269,0.30656,10.05669,-0.06595,0.01652,-0.01119
4718,128,0.62,-0.13,0.05,128,0,-0.22274,0.07185,9.97047,-0.05982,0.01612,-0.00640
4728,128,0.60,-0.10,0.05,128,0,-0.38081,0.34967,9.64474,-0.05969,0.01572,0.00786
4738,128,0.59,-0.07,0.04,128,0,-0.93645,0.77838,10.00160,-0.06555,0.03131,0.04290
4748,128,0.56,-0.04,0.04,128,0,1.04183,-1.25978,10.21476,-0.07021,0.01506,0.01852
4758,128,0.55,-0.02,0.04,128,0,0.10059,0.68737,10.78477,-0.06395,0.01745,-0.00560
4768,128,0.54,0.00,0.03,128,0,0.11257,0.54846,9.70462,-0.06662,0.03624,0.03544
4778,128,0.52,0.02,0.02,128,0,-0.45266,-1.02507,9.93215,-0.06981,0.03144,0.03104
4788,128,0.50,0.04,0.02,128,0,0.77838,0.21076,10.09022,-0.05236,0.03144,-0.01799
4798,128,0.49,0.04,0.01,128,0,0.34249,0.53169,9.68785,-0.05955,0.03211,0.01652
4808,128,0.47,0.04,0.00,128,0,0.44787,-0.45266,10.17644,-0.06422,0.03837,0.02078
4818,128,0.45,0.04,-0.00,128,0,0.05509,0.12694,10.24589,-0.05662,0.04437,-0.02425
4828,128,0.44,0.04,-0.01,128,0,-0.62989,0.42631,9.88185,-0.05569,0.04890,-0.03078
4838,128,0.41,0.04,-0.01,128,0,0.32333,-0.18921,9.86030,-0.05529,0.03824,0.00466
4848,128,0.38,0.04,-0.01,128,0,0.17005,-0.20837,9.87706,-0.04743,0.05729,-0.00733
4858,128,0.35,0.06,-0.02,128,0,-0.38560,0.10059,9.88904,-0.04330,0.05582,-0.01519
4868,128,0.32,0.08,-0.02,128,0,-0.68019,0.04311,10.01597,-0.04743,0.06262,0.00000
4878,128,0.28,0.10,-0.02,128,0,0.47900,-0.25148,10.15009,-0.04024,0.07101,-0.01625
4888,128,0.26,0.12,-0.02,128,0,0.25387,0.19400,9.99202,-0.03677,0.07181,-0.03837
4898,128,0.24,0.14,-0.02,128,0,-0.12694,0.13891,10.10459,-0.04250,0.08247,-0.02665
4908,128,0.21,0.18,-0.02,128,0,-0.16286,-0.03114,10.17165,-0.04317,0.08793,-0.02731
4918,128,0.19,0.20,-0.01,128,0,0.12694,0.25148,9.89383,-0.04104,0.08060,-0.04890
4928,128,0.18,0.24,-0.01,128,0,-0.14370,0.15807,9.92736,-0.04756,0.08114,-0.03864
4938,128,0.16,0.28,0.00,128,0,-0.13652,-0.00719,10.16686,-0.05143,0.08833,-0.02438
4948,128,0.15,0.31,0.01,128,0,-0.01198,0.12694,9.90820,-0.04983,0.08487,-0.02691
4958,128,0.14,0.35,0.02,128,0,-0.25866,0.26585,10.04232,-0.05955,0.08540,-0.03078
4968,128,0.12,0.39,0.02,128,0,0.05030,-0.00479,10.00160,-0.06368,0.08380,-0.01506
4978,128,0.11,0.41,0.03,128,0,0.25627,0.01677,10.08064,-0.06568,0.08407,-0.01625
4988,128,0.10,0.44,0.04,128,0,-0.14370,0.10299,9.86509,-0.06488,0.07901,-0.02092
4998,128,0.09,0.48,0.05,128,0,-0.54127,0.13652,9.85551,-0.07368,0.07861,-0.00480
5008,128,0.09,0.52,0.05,128,0,-0.13173,0.10778,10.08543,-0.07927,0.08140,0.01252
5018,128,0.09,0.55,0.05,128,0,-0.07425,0.11975,9.73336,-0.07647,0.07754,0.01372
5028,128,0.09,0.59,0.05,128,0,-0.50774,0.24190,9.72617,-0.08993,0.08140,0.02651
5038,128,0.08,0.64,0.05,128,0,-0.67300,0.07904,9.90580,-0.08807,0.08074,0.04503
5048,128,0.07,0.71,0.05,128,0,-0.47661,0.03832,9.73815,-0.09513,0.07874,0.04157
5058,128,0.06,0.79,0.04,128,0,-0.48619,0.05509,9.93933,-0.09606,0.07194,0.03997
5068,128,0.03,0.87,0.03,128,0,-0.42871,-0.07185,10.09501,-0.09806,0.08007,0.04530
5078,128,-0.01,0.94,0.02,128,0,-0.23711,-0.09820,10.08782,-0.09979,0.07794,0.03437
5088,128,-0.05,1.02,0.01,128,0,-0.37362,-0.13173,9.84353,-0.10179,0.07314,0.01226
5098,128,-0.11,1.10,0.00,128,0,-0.34967,-0.15807,10.07824,-0.10046,0.06462,0.00200
5108,128,-0.18,1.16,-0.00,128,0,-0.06946,-0.13412,9.89143,-0.09699,0.07035,-0.01186
5118,128,-0.24,1.21,-0.01,128,0,-0.18202,-0.13652,9.55613,-0.09766,0.05316,-0.02531
5128,128,-0.30,1.27,-0.01,128,0,-0.43589,-0.02395,10.02076,-0.10485,0.06622,-0.03597
5138,128,-0.37,1.34,-0.01,128,0,-0.49337,-0.09580,9.76689,-0.10539,0.05809,-0.02771
5148,128,-0.42,1.40,-0.01,128,0,-0.29219,-0.00240,9.98963,-0.10938,0.04210,-0.02531
5158,128,-0.47,1.47,-0.01,128,0,-0.62989,-0.12215,9.87467,-0.09899,0.03664,-0.01186
5168,128,-0.52,1.54,-0.01,128,0,-0.79515,-0.11257,9.83635,-0.10632,0.03517,0.00386
5178,128,-0.58,1.62,-0.02,128,0,-0.63229,-0.12454,10.25308,-0.11325,0.02505,0.01452
5188,128,-0.64,1.70,-0.02,128,0,-0.57480,-0.36644,10.37043,-0.10365,0.02078,0.01785
5198,128,-0.71,1.79,-0.02,128,0,-0.54606,-0.28261,10.24589,-0.10285,0.01972,0.02185
5208,128,-0.79,1.87,-0.02,128,0,-0.57001,-0.25866,9.93454,-0.10738,-0.00027,0.02998
5218,128,-0.87,1.93,-0.03,128,0,-0.27782,-0.33530,10.16925,-0.10512,-0.00719,0.02358
5228,128,-0.96,1.99,-0.04,128,0,-0.33770,-0.39518,9.98723,-0.09952,-0.00666,0.02118
5238,128,-1.05,2.03,-0.04,128,0,-0.41673,-0.28740,9.95610,-0.09832,-0.01479,0.02318
5248,128,-1.15,2.07,-0.05,128,0,-0.43589,-0.37123,9.66390,-0.09419,-0.01372,0.02038
5258,128,-1.24,2.11,-0.06,128,0,-0.43589,-0.19400,9.69264,-0.09646,-0.02971,0.01506
5268,128,-1.31,2.14,-0.07,128,0,-0.41434,-0.22274,10.03992,-0.09006,-0.02505,0.01159
5278,128,-1.38,2.17,-0.07,128,0,-0.55085,-0.32333,10.25787,-0.08354,-0.01572,0.00573
5288,128,-1.45,2.19,-0.08,128,0,-0.38560,-0.34009,10.03034,-0.07767,-0.01945,-0.00080
5298,128,-1.53,2.21,-0.09,128,0,-0.41913,-0.35446,10.28900,-0.07008,-0.03198,-0.00426
5308,128,-1.61,2.21,-0.09,128,0,-0.10299,-0.30417,9.85311,-0.06688,-0.04183,-0.00906
5318,128,-1.68,2.19,-0.10,128,0,-0.21795,-0.38799,10.60515,-0.05982,-0.02158,-0.01039
5328,128,-1.76,2.18,-0.10,128,0,-0.38320,-0.52211,10.24589,-0.04850,-0.02891,-0.02105
5338,128,-1.84,2.16,-0.10,128,0,-0.29219,-0.54846,10.05669,-0.04823,-0.02025,-0.02958
5348,128,-1.93,2.14,-0.10,128,0,-0.28740,-0.49816,9.66151,-0.04130,-0.02305,-0.03677
5358,128,-2.02,2.12,-0.10,128,0,-0.32572,-0.47182,9.90341,-0.04077,-0.02745,-0.03571
5368,128,-2.09,2.09,-0.09,128,0,-0.29219,-0.35925,9.76449,-0.03424,-0.02198,-0.03277
5378,128,-2.15,2.06,-0.09,128,0,-0.32333,-0.29698,9.90341,-0.03171,-0.02345,-0.03277
5388,128,-2.19,2.03,-0.08,128,0,-0.21795,-0.34967,9.95131,-0.02931,-0.02065,-0.03757
5398,128,-2.23,2.00,-0.08,128,0,-0.42392,-0.28022,9.98963,-0.02798,-0.02105,-0.03331
5408,128,-2.27,1.99,-0.07,128,0,-0.45745,-0.40476,9.63277,-0.02904,-0.02438,-0.02252
5418,128,-2.30,1.99,-0.06,128,0,-0.58917,-0.47900,10.32253,-0.02225,-0.02625,-0.00746
5428,128,-2.34,2.00,-0.06,128,0,-0.53888,-0.45505,10.06387,-0.02558,-0.02358,0.00466
5438,128,-2.38,2.02,-0.05,128,0,-0.55804,-0.43829,10.02555,-0.01772,-0.02252,0.02145
5448,128,-2.42,2.03,-0.05,128,0,-0.39518,-0.44308,9.96807,-0.01532,-0.02665,0.02451
5458,128,-2.45,2.04,-0.05,128,0,-0.34009,-0.35446,9.98244,-0.01785,-0.02531,0.02372
5468,128,-2.47,2.04,-0.06,128,0,-0.28740,-0.36404,10.02316,-0.00813,-0.02838,0.02278
5478,128,-2.49,2.02,-0.06,128,0,-0.21316,-0.31614,10.03753,-0.00986,-0.03198,0.01932
5488,128,-2.49,2.00,-0.06,128,0,-0.32812,-0.32333,9.98484,-0.00586,-0.03224,0.01892
5498,128,-2.49,1.98,-0.07,128,0,-0.23711,-0.35446,9.99921,-0.00306,-0.03078,0.01252
5508,128,-2.48,1.94,-0.08,128,0,-0.25148,-0.32812,9.99681,0.00360,-0.03144,0.00133
5518,128,-2.48,1.90,-0.08,128,0,-0.18681,-0.39518,9.98005,0.00373,-0.03397,-0.00679
5528,128,-2.48,1.85,-0.09,128,0,-0.23711,-0.38560,10.09740,0.00613,-0.03357,-0.01785
5538,128,-2.49,1.80,-0.09,128,0,-0.28740,-0.45984,9.94412,0.01053,-0.03810,-0.02438
5548,128,-2.50,1.77,-0.09,128,0,-0.41194,-0.46703,9.81719,0.01506,-0.03997,-0.02678
5558,128,-2.50,1.74,-0.09,128,0,-0.26824,-0.36644,9.89862,0.02092,-0.04850,-0.02851
5568,128,-2.50,1.70,-0.09,128,0,-0.15807,-0.40236,10.03513,0.02225,-0.03317,-0.03757
5578,128,-2.51,1.66,-0.08,128,0,-0.28980,-0.46703,9.89383,0.03184,-0.04423,-0.03877
5588,128,-2.51,1.64,-0.08,128,0,-0.34967,-0.23950,10.06148,0.02478,-0.04197,-0.03584
5598,128,-2.51,1.62,-0.07,128,0,-0.30656,-0.43829,9.96807,0.03424,-0.03064,-0.03064
5608,128,-2.51,1.61,-0.06,128,0,-0.31375,-0.40236,10.28661,0.03717,-0.03344,-0.02292
5618,128,-2.50,1.61,-0.06,128,0,-0.33291,-0.25148,9.79803,0.03357,-0.03291,-0.01585
5628,128,-2.48,1.61,-0.05,128,0,-0.35686,-0.29219,10.07824,0.03371,-0.04104,-0.00640
5638,128,-2.47,1.63,-0.05,128,0,-0.57001,-0.39518,9.79323,0.03198,-0.03664,0.00107
5648,128,-2.45,1.65,-0.05,128,0,-0.43110,-0.31854,9.81240,0.03770,-0.04530,0.01026
5658,128,-2.44,1.67,-0.04,128,0,-0.36165,-0.36404,9.96328,0.03691,-0.04183,0.01705
5668,128,-2.43,1.68,-0.04,128,0,-0.28022,-0.39518,9.85790,0.03944,-0.03944,0.01799
5678,128,-2.42,1.68,-0.04,128,0,-0.19160,-0.35207,10.02076,0.04104,-0.03784,0.00826
5688,128,-2.41,1.67,-0.05,128,0,-0.11975,-0.33051,10.07585,0.04277,-0.03797,0.00253
5698,128,-2.40,1.64,-0.05,128,0,-0.05988,-0.24908,10.03753,0.04397,-0.03651,-0.00320
5708,128,-2.37,1.61,-0.05,128,0,-0.16047,-0.22992,10.25308,0.04517,-0.03158,-0.01466
5718,128,-2.33,1.58,-0.05,128,0,-0.16047,-0.17723,9.98963,0.04703,-0.03491,-0.01079
5728,128,-2.28,1.54,-0.05,128,0,-0.25148,-0.11975,9.61600,0.04863,-0.03291,-0.01292
5738,128,-2.22,1.52,-0.05,128,0,-0.24190,-0.17723,9.89143,0.04663,-0.02904,-0.01359
5748,128,-2.16,1.49,-0.05,128,0,-0.23950,-0.12933,9.71420,0.05529,-0.03837,-0.01585
5758,128,-2.10,1.46,-0.05,128,0,-0.16286,-0.24190,9.72857,0.04956,-0.03331,-0.02598
5768,128,-2.04,1.44,-0.05,128,0,-0.38560,-0.19160,10.01358,0.05249,-0.02611,-0.03411
5778,128,-1.99,1.43,-0.04,128,0,-0.29219,-0.23950,9.80521,0.05076,-0.03730,-0.03651
5788,128,-1.96,1.42,-0.04,128,0,-0.36644,-0.38799,9.07233,0.04930,-0.03424,-0.03637
5798,128,-1.92,1.43,-0.03,128,0,-0.50774,-0.17723,10.39678,0.05089,-0.02238,-0.03691
5808,128,-1.89,1.44,-0.02,128,0,-0.35207,-0.30656,9.97286,0.04850,-0.02025,-0.02864
5818,128,-1.86,1.46,-0.01,128,0,-0.36165,-0.29459,9.89622,0.04397,-0.02731,-0.02025
5828,128,-1.83,1.48,-0.01,128,0,-0.35446,-0.09341,10.23152,0.04596,-0.03757,-0.01026
5838,128,-1.79,1.50,0.00,128,0,-0.28980,0.00000,10.23392,0.03970,-0.03651,-0.00573
5848,128,-1.73,1.50,0.01,128,0,-0.11496,0.05509,10.32493,0.03691,-0.04024,-0.00027
5858,128,-1.68,1.50,0.01,128,0,-0.12694,0.02156,9.93933,0.03264,-0.03717,0.00679
5868,128,-1.62,1.48,0.01,128,0,-0.25866,-0.13652,10.20997,0.03264,-0.03917,0.01252
5878,128,-1.55,1.46,0.01,128,0,-0.22274,-0.06706,9.90580,0.03078,-0.04197,0.01839
5888,128,-1.50,1.44,0.01,128,0,-0.23232,-0.10538,9.76210,0.02798,-0.03850,0.02318
5898,128,-1.46,1.43,0.01,128,0,-0.26106,-0.15568,9.76210,0.03038,-0.04450,0.02012
5908,128,-1.42,1.41,0.00,128,0,-0.15328,-0.11736,9.80282,0.02771,-0.04397,0.01772
5918,128,-1.40,1.38,-0.00,128,0,-0.22034,-0.22034,9.88425,0.02731,-0.04503,0.01559
5928,128,-1.36,1.37,-0.01,128,0,-0.23711,-0.10778,9.95131,0.02705,-0.05662,0.01346
5938,128,-1.33,1.36,-0.01,128,0,-0.28740,-0.10538,10.04711,0.02505,-0.04716,0.00493
5948,128,-1.30,1.36,-0.02,128,0,-0.29698,-0.24908,10.15967,0.03198,-0.04970,0.00333
5958,128,-1.27,1.36,-0.02,128,0,-0.40955,-0.01437,10.15967,0.02625,-0.04716,-0.00480
5968,128,-1.24,1.35,-0.03,128,0,-0.06227,-0.02395,10.21476,0.03437,-0.04916,-0.01732
5978,128,-1.20,1.33,-0.03,128,0,-0.08862,-0.05269,10.05908,0.03144,-0.04690,-0.02785
5988,128,-1.16,1.30,-0.03,128,0,-0.07425,-0.06946,10.26026,0.03131,-0.04610,-0.03344
5998,128,-1.12,1.26,-0.03,128,0,-0.15807,-0.04551,9.61840,0.02931,-0.05289,-0.03864
6008,128,-1.09,1.23,-0.02,128,0,-0.23232,-0.19639,9.88185,0.03317,-0.04836,-0.04037
6018,128,-1.06,1.21,-0.02,128,0,-0.30896,-0.12215,9.52260,0.03384,-0.05156,-0.03531
6028,128,-1.02,1.18,-0.01,128,0,-0.16047,-0.01916,9.54894,0.02705,-0.05529,-0.03158
6038,128,-0.98,1.16,-0.01,128,0,-0.25148,0.02156,9.73336,0.02785,-0.05316,-0.02545
6048,128,-0.93,1.15,-0.00,128,0,-0.24669,0.03593,9.92736,0.02585,-0.06049,-0.01945
6058,128,-0.87,1.14,0.00,128,0,-0.19160,0.04551,10.01597,0.02052,-0.04903,-0.01332
6068,128,-0.81,1.11,0.01,128,0,0.02395,0.05988,9.96568,0.01639,-0.05049,-0.01092
6078,128,-0.76,1.07,0.01,128,0,0.01437,-0.05988,10.01597,0.01545,-0.05196,-0.00280
6088,128,-0.71,1.03,0.02,128,0,-0.01677,0.09101,10.13572,0.01372,-0.05649,-0.00253
6098,128,-0.65,0.98,0.02,128,0,-0.11496,0.05269,9.98723,0.01026,-0.05116,-0.00200
6108,128,-0.60,0.93,0.02,128,0,-0.00719,-0.08622,9.99442,0.00733,-0.05023,0.00293
6118,128,-0.55,0.89,0.02,128,0,-0.12215,0.06467,9.83635,0.00506,-0.04756,0.00426
6128,128,-0.52,0.86,0.03,128,0,-0.14370,-0.04790,9.90341,0.00147,-0.04383,0.00027
6138,128,-0.49,0.83,0.03,128,0,-0.19160,-0.05030,9.81479,-0.00093,-0.04024,0.00386
6148,128,-0.46,0.80,0.03,128,0,-0.03353,0.07425,9.90580,-0.00053,-0.03637,0.00613
6158,128,-0.44,0.76,0.03,128,0,-0.00719,-0.02156,9.89143,-0.00120,-0.04090,0.00173
6168,128,-0.41,0.72,0.02,128,0,-0.08383,0.02874,10.01118,-0.00693,-0.03104,0.00120
6178,128,-0.37,0.68,0.02,128,0,-0.06227,0.06706,9.98005,-0.00266,-0.02678,-0.00013
6188,128,-0.35,0.64,0.02,128,0,-0.06467,0.02635,9.98723,-0.00640,-0.02385,-0.00320
6198,128,-0.32,0.60,0.02,128,0,-0.02874,0.05988,10.07585,-0.00533,-0.01679,-0.00053
6208,128,-0.30,0.55,0.02,128,0,0.00719,-0.00719,10.01597,-0.00693,-0.01812,-0.00306
6218,128,-0.30,0.49,0.02,128,0,-0.00240,0.01916,9.99681,-0.01013,-0.01279,-0.00853
6228,128,-0.30,0.45,0.02,128,0,-0.05269,-0.02874,10.08543,-0.00919,-0.01066,-0.01106
6238,128,-0.30,0.40,0.02,128,0,0.03114,-0.02874,9.86509,-0.01306,-0.00600,-0.01545
6248,128,-0.30,0.36,0.02,128,0,-0.00719,0.09580,9.81479,-0.01439,-0.00400,-0.01892
6258,128,-0.31,0.32,0.02,128,0,-0.01198,0.01198,9.81719,-0.01625,-0.00600,-0.02358
6268,128,-0.31,0.30,0.02,128,0,-0.06467,-0.00240,9.78366,-0.02145,-0.00213,-0.02132
6278,128,-0.31,0.29,0.02,128,0,-0.09341,0.03593,9.88185,-0.02385,-0.00200,-0.01785
6288,128,-0.32,0.29,0.03,128,0,-0.16765,-0.04311,9.88664,-0.02571,-0.00320,-0.00613
6298,128,-0.33,0.31,0.03,128,0,-0.36404,-0.05509,10.24350,-0.03078,-0.00453,0.00640
6308,128,-0.34,0.33,0.03,128,0,-0.29459,-0.04072,9.86988,-0.03051,0.00107,0.01412
6318,128,-0.35,0.37,0.03,128,0,-0.13891,-0.01198,10.04711,-0.03464,0.00067,0.01998
6328,128,-0.37,0.39,0.03,128,0,-0.02874,-0.04790,10.08064,-0.03451,0.00706,0.02438
6338,128,-0.37,0.40,0.02,128,0,-0.02156,0.03832,10.06627,-0.03424,-0.00093,0.02705
6348,128,-0.37,0.40,0.02,128,0,0.01916,0.07185,10.04711,-0.03317,0.00746,0.02611
6358,128,-0.38,0.39,0.01,128,0,0.00000,-0.05030,10.00639,-0.02918,0.00426,0.02238
6368,128,-0.39,0.37,0.00,128,0,0.16765,-0.02635,10.02555,-0.03584,0.01026,0.01199
6378,128,-0.41,0.35,-0.01,128,0,-0.00958,-0.18681,9.75492,-0.02904,0.00280,0.00573
6388,128,-0.44,0.35,-0.01,128,0,-0.15089,-0.09101,9.91059,-0.03118,-0.00133,-0.00213
6398,128,-0.47,0.35,-0.02,128,0,-0.10538,-0.13652,10.05190,-0.02611,0.02052,-0.01013
6408,128,-0.51,0.36,-0.02,128,0,-0.14370,-0.12215,9.89143,-0.02158,0.01346,-0.00999
6418,128,-0.53,0.37,-0.03,128,0,-0.03114,0.00719,9.99921,-0.02798,0.01772,-0.01519
6428,128,-0.56,0.36,-0.03,128,0,-0.00958,-0.09341,10.04950,-0.02398,0.02078,-0.02278
6438,128,-0.57,0.36,-0.03,128,0,-0.07185,-0.02395,10.04471,-0.02065,0.02718,-0.02691
6448,128,-0.58,0.37,-0.03,128,0,-0.09820,-0.03114,10.01597,-0.02052,0.02651,-0.03264
6458,128,-0.59,0.38,-0.03,128,0,-0.13173,-0.17963,10.03513,-0.02012,0.02838,-0.03251
6468,128,-0.60,0.41,-0.02,128,0,-0.19879,-0.04311,9.84593,-0.01439,0.01799,-0.02425
6478,128,-0.61,0.44,-0.02,128,0,-0.22513,0.01437,10.10698,-0.02571,0.02904,-0.01839
6488,128,-0.61,0.48,-0.01,128,0,-0.29459,-0.10059,10.00160,-0.01679,0.02465,-0.01132
6498,128,-0.61,0.53,-0.01,128,0,-0.27782,0.04790,9.97765,-0.02358,0.02358,-0.00053
6508,128,-0.62,0.57,-0.01,128,0,-0.15568,-0.05269,10.08782,-0.02531,0.03411,0.00613
6518,128,-0.63,0.61,-0.01,128,0,-0.17963,-0.08622,9.93454,-0.02611,0.03144,0.01386
6528,128,-0.65,0.63,-0.01,128,0,-0.11257,-0.09580,9.79563,-0.02438,0.02465,0.01585
6538,128,-0.66,0.65,-0.01,128,0,-0.12215,-0.02156,9.80761,-0.03024,0.02411,0.01532
6548,128,-0.67,0.68,-0.01,128,0,-0.17005,-0.07185,10.00400,-0.02398,0.02025,0.01106
6558,128,-0.68,0.70,-0.02,128,0,-0.03353,-0.01437,9.84593,-0.02731,0.02425,0.00213
6568,128,-0.68,0.71,-0.02,128,0,-0.04072,0.09580,9.82437,-0.02864,0.02372,-0.00640
6578,128,-0.67,0.72,-0.02,128,0,-0.16765,0.00000,10.02555,-0.03118,0.01905,-0.01439
6588,128,-0.67,0.75,-0.02,128,0,-0.20358,-0.04551,9.94652,-0.03371,0.01985,-0.01692
6598,128,-0.66,0.78,-0.02,128,0,-0.34249,0.03832,9.96089,-0.03024,0.01799,-0.01732
6608,128,-0.65,0.83,-0.02,128,0,-0.45026,-0.09820,10.03274,-0.03397,0.01825,-0.01439
6618,128,-0.66,0.88,-0.02,128,0,-0.39278,-0.12454,10.06387,-0.03357,0.01652,-0.00693
6628,128,-0.65,0.94,-0.02,128,0,-0.37602,-0.00240,10.06627,-0.03491,0.01279,-0.00426
6638,128,-0.65,1.00,-0.02,128,0,-0.31854,-0.02635,9.89622,-0.03744,0.00786,-0.00373
6648,128,-0.66,1.05,-0.02,128,0,-0.23950,-0.08383,9.69743,-0.03890,-0.00573,-0.00453
6658,128,-0.68,1.10,-0.02,128,0,-0.32093,-0.18202,9.97765,-0.03930,0.00799,-0.00373
6668,128,-0.70,1.16,-0.02,128,0,-0.37123,-0.12454,9.89862,-0.04104,0.00426,-0.00533
6678,128,-0.72,1.20,-0.02,128,0,-0.18202,-0.08622,10.04232,-0.04250,0.00253,-0.00027
6688,128,-0.74,1.22,-0.02,128,0,-0.00479,-0.09341,9.79563,-0.04157,-0.00373,-0.00053
6698,128,-0.76,1.23,-0.02,128,0,-0.16286,-0.07664,9.95610,-0.04170,-0.00346,0.00133
6708,128,-0.77,1.24,-0.02,128,0,-0.23471,-0.04072,10.06866,-0.04343,0.00120,0.00333
6718,128,-0.77,1.24,-0.02,128,0,-0.13412,0.02635,10.14530,-0.04104,-0.00853,0.00293
6728,128,-0.77,1.23,-0.02,128,0,-0.12215,-0.09341,9.77886,-0.04410,-0.01053,-0.00067
6738,128,-0.79,1.22,-0.03,128,0,-0.21316,-0.14610,10.03034,-0.04330,-0.00187,0.00093
6748,128,-0.82,1.21,-0.03,128,0,-0.13412,-0.17005,9.87467,-0.04237,-0.00053,-0.00613
6758,128,-0.85,1.20,-0.03,128,0,-0.27303,-0.22753,9.65432,-0.03677,-0.00493,-0.01172
6768,128,-0.89,1.20,-0.03,128,0,-0.30656,-0.19400,9.94652,-0.04570,0.00373,-0.01266
6778,128,-0.93,1.22,-0.03,128,0,-0.48619,-0.22034,10.01118,-0.03784,0.00333,-0.00293
6788,128,-0.96,1.24,-0.03,128,0,-0.38320,-0.16286,9.94891,-0.03597,0.00333,0.00200
6798,128,-1.00,1.28,-0.03,128,0,-0.48140,-0.19639,10.10459,-0.03557,0.00573,0.00679
6808,128,-1.04,1.32,-0.03,128,0,-0.40955,-0.23950,10.19560,-0.03251,-0.00173,0.01585
6818,128,-1.08,1.35,-0.04,128,0,-0.15568,-0.17244,10.23631,-0.03304,0.00826,0.01359
6828,128,-1.12,1.37,-0.04,128,0,-0.26106,-0.19879,9.94412,-0.02891,0.00200,0.00746
6838,128,-1.15,1.37,-0.04,128,0,0.00240,-0.16526,10.33690,-0.03171,0.01426,0.00147
6848,128,-1.18,1.37,-0.04,128,0,0.18442,-0.12694,9.93215,-0.02611,0.01132,-0.00906
6858,128,-1.21,1.35,-0.05,128,0,-0.01198,-0.14370,10.27463,-0.02425,0.01372,-0.01772
6868,128,-1.24,1.33,-0.05,128,0,-0.07185,-0.22753,9.81958,-0.02305,0.00813,-0.01665
6878,128,-1.25,1.30,-0.05,128,0,-0.18921,-0.13652,10.00160,-0.01865,0.01412,-0.01132
6888,128,-1.27,1.28,-0.05,128,0,-0.10778,-0.23232,9.78605,-0.01998,0.01479,-0.00773
6898,128,-1.29,1.26,-0.05,128,0,-0.40236,-0.14131,9.97047,-0.01705,0.00640,-0.00480
6908,128,-1.29,1.26,-0.05,128,0,-0.25148,-0.15089,10.32253,-0.01426,0.01466,-0.00626
6918,128,-1.30,1.26,-0.05,128,0,-0.41194,-0.31614,9.72378,-0.01359,0.00573,-0.00573
6928,128,-1.31,1.28,-0.05,128,0,-0.45266,-0.18921,10.00639,-0.01492,0.00826,-0.00187
6938,128,-1.33,1.31,-0.05,128,0,-0.46703,-0.29219,10.22913,-0.01053,0.01452,0.00506
6948,128,-1.35,1.35,-0.05,128,0,-0.38560,-0.21076,10.12375,-0.01026,0.00466,0.00799
6958,128,-1.35,1.38,-0.05,128,0,-0.26345,-0.12694,10.04711,-0.00799,0.00426,0.00453
6968,128,-1.35,1.39,-0.06,128,0,-0.17963,-0.11975,9.85551,-0.00999,-0.00546,-0.00386
6978,128,-1.34,1.40,-0.06,128,0,-0.08383,-0.09341,9.72139,-0.01079,0.00733,-0.01559
6988,128,-1.33,1.41,-0.06,128,0,-0.27543,-0.11736,9.92017,-0.00600,0.00613,-0.02411
6998,128,-1.33,1.42,-0.06,128,0,-0.28740,-0.19400,9.80042,-0.01039,0.00320,-0.02145
7008,128,-1.33,1.44,-0.06,128,0,-0.38799,-0.20837,9.80761,-0.00826,0.00053,-0.01479
7018,128,-1.33,1.47,-0.05,128,0,-0.35925,-0.17963,10.00879,-0.00746,0.00000,-0.01212
7028,128,-1.32,1.50,-0.05,128,0,-0.31135,-0.10299,9.98244,-0.00879,-0.00626,-0.01013
7038,128,-1.31,1.51,-0.05,128,0,-0.24908,-0.12215,10.11417,-0.01079,-0.00586,-0.01492
7048,128,-1.29,1.52,-0.05,128,0,-0.17244,-0.11736,10.11177,-0.01079,-0.00346,-0.01919
7058,128,-1.27,1.51,-0.05,128,0,-0.21076,-0.08143,9.97286,-0.01159,-0.01332,-0.02025
7068,128,-1.26,1.49,-0.04,128,0,-0.22513,-0.14131,9.92496,-0.01172,-0.01252,-0.01932
7078,128,-1.25,1.49,-0.04,128,0,-0.29938,-0.15568,9.92257,-0.01399,-0.01426,-0.02065
7088,128,-1.25,1.49,-0.03,128,0,-0.30177,-0.14849,10.03513,-0.01665,-0.01332,-0.01745
7098,128,-1.24,1.51,-0.03,128,0,-0.40236,-0.06467,9.95849,-0.01985,-0.00973,-0.00973
7108,128,-1.23,1.54,-0.03,128,0,-0.34967,-0.12454,10.11417,-0.02292,-0.01332,-0.00147
7118,128,-1.22,1.57,-0.03,128,0,-0.47421,-0.15807,9.91059,-0.01799,-0.02012,0.01092
7128,128,-1.21,1.61,-0.03,128,0,-0.41673,-0.11496,9.91059,-0.02465,-0.02038,0.01812
7138,128,-1.21,1.65,-0.03,128,0,-0.35686,-0.18442,10.00160,-0.02438,-0.01732,0.02332
7148,128,-1.22,1.67,-0.03,128,0,-0.28261,-0.17963,9.87946,-0.01932,-0.02078,0.01865
7158,128,-1.23,1.68,-0.03,128,0,-0.24669,-0.19639,9.97286,-0.02238,-0.01732,0.01332
7168,128,-1.25,1.67,-0.04,128,0,-0.16526,-0.21795,9.94652,-0.02092,-0.02731,0.00999
7178,128,-1.26,1.66,-0.04,128,0,-0.09341,-0.17005,10.02795,-0.01852,-0.01772,0.00360
7188,128,-1.28,1.63,-0.04,128,0,-0.08143,-0.20358,10.13333,-0.01879,-0.01079,-0.00053
7198,128,-1.29,1.60,-0.05,128,0,-0.10538,-0.20597,10.09501,-0.01492,-0.00986,0.00147
7208,128,-1.30,1.56,-0.05,128,0,-0.09101,-0.16765,10.05190,-0.01559,-0.00826,-0.00346
9849,128,-1.31,1.50,-0.05,128,0,-0.17005,-0.18681,9.98005,0.01332,-0.03904,-0.02878
9859,128,-1.31,1.45,-0.05,128,0,-0.17723,-0.15328,9.95131,0.01412,-0.03624,-0.02745
9869,128,-1.30,1.41,-0.05,128,0,-0.25866,-0.10538,9.92736,0.01452,-0.03637,-0.02292
9879,128,-1.29,1.38,-0.05,128,0,-0.39518,-0.07904,9.85790,0.00946,-0.03531,-0.01825
9889,128,-1.27,1.35,-0.05,128,0,-0.00240,0.00479,9.62319,0.01719,-0.02984,-0.01705
9899,128,-1.26,1.32,-0.05,128,0,-0.22274,-0.24908,10.49737,0.02038,-0.02785,-0.00613
9909,128,-1.24,1.29,-0.05,128,0,-0.34728,0.12933,9.89622,0.00679,-0.04170,0.00160
9919,128,-1.22,1.28,-0.05,128,0,-0.30417,0.00719,10.06148,0.01146,-0.02785,0.00320
9929,128,-1.18,1.27,-0.05,128,0,-0.23711,-0.08383,9.97526,0.01386,-0.02851,0.00253
9939,128,-1.14,1.26,-0.05,128,0,-0.13652,0.07664,10.10459,0.00693,-0.01705,0.00600
9949,128,-1.11,1.25,-0.05,128,0,-0.22034,-0.32812,10.28900,0.01439,-0.01892,0.00306
9959,128,-1.09,1.23,-0.05,128,0,-0.10059,-0.11975,9.94412,0.00719,-0.01612,-0.00013
9969,128,-1.06,1.21,-0.05,128,0,-0.17244,0.01677,9.97047,0.00919,-0.01852,-0.00626
9979,128,-1.04,1.19,-0.05,128,0,-0.21076,-0.27782,9.85311,0.01013,-0.02025,-0.00733
9989,128,-1.02,1.16,-0.06,128,0,-0.13652,-0.08143,10.31535,0.00853,-0.00187,-0.01226
9999,128,-0.99,1.13,-0.06,128,0,-0.14849,-0.04311,9.89143,0.01106,-0.01252,-0.01319
10009,128,-0.96,1.12,-0.06,128,0,-0.29219,-0.07425,9.97765,0.00693,-0.00893,-0.01266
10019,128,-0.93,1.09,-0.06,128,0,-0.13652,-0.00479,9.87227,0.00666,-0.00306,-0.01692
10029,128,-0.89,1.08,-0.05,128,0,-0.19400,-0.01198,9.94652,0.00946,-0.00187,-0.01625
10039,128,-0.86,1.07,-0.05,128,0,-0.17244,-0.05988,9.93454,0.00693,-0.01426,-0.00986
10049,128,-0.83,1.06,-0.05,128,0,-0.25148,-0.00479,10.05429,0.00653,-0.00093,-0.00466
10059,128,-0.81,1.07,-0.05,128,0,-0.25387,-0.11736,10.05190,0.00586,-0.00480,0.00093
10069,128,-0.80,1.08,-0.05,128,0,-0.28501,-0.09580,9.84114,0.00373,-0.00573,0.00253
10079,128,-0.78,1.11,-0.05,128,0,-0.29459,-0.00958,9.97526,0.00053,-0.00466,0.00133
10089,128,-0.75,1.12,-0.05,128,0,-0.23471,-0.00719,10.08303,0.00306,-0.00533,-0.00173
10099,128,-0.73,1.15,-0.05,128,0,-0.33051,-0.02635,9.80761,-0.00360,-0.01092,0.00133
10109,128,-0.71,1.19,-0.05,128,0,-0.31135,-0.05030,9.84593,-0.00640,-0.01013,0.00360
10119,128,-0.70,1.22,-0.06,128,0,-0.25866,-0.11017,9.94173,-0.00320,-0.01266,0.00400
10129,128,-0.70,1.23,-0.06,128,0,-0.16286,-0.11257,9.83874,-0.00640,-0.00999,0.00013
10139,128,-0.70,1.24,-0.06,128,0,-0.17005,-0.03832,10.00400,-0.00600,-0.00906,-0.00773
10149,128,-0.69,1.23,-0.06,128,0,-0.18681,-0.03114,9.94891,-0.00373,-0.01279,-0.00706
10159,128,-0.69,1.21,-0.06,128,0,-0.16526,-0.05269,9.96089,-0.00666,-0.00973,-0.00933
10169,128,-0.67,1.20,-0.06,128,0,-0.24429,0.02156,10.02795,-0.00600,-0.00999,-0.00759
10179,128,-0.67,1.19,-0.06,128,0,-0.18681,-0.08383,9.96807,-0.00613,-0.01186,-0.00666
10189,128,-0.67,1.19,-0.06,128,0,-0.26585,-0.07185,9.95610,-0.00533,-0.00946,-0.00746
10199,128,-0.66,1.20,-0.06,128,0,-0.28022,0.01677,9.93694,-0.00666,-0.01119,-0.00466
10209,128,-0.66,1.21,-0.06,128,0,-0.26345,-0.05030,9.90580,-0.00666,-0.00666,-0.00520
10219,128,-0.65,1.22,-0.06,128,0,-0.20358,0.00240,9.94652,-0.00666,-0.01092,-0.00813
10229,128,-0.64,1.24,-0.06,128,0,-0.28740,-0.02874,9.99202,-0.00506,-0.00560,-0.00759
10239,128,-0.63,1.25,-0.06,128,0,-0.22513,-0.05269,9.92257,-0.00679,-0.00693,-0.01186
10249,128,-0.63,1.25,-0.06,128,0,-0.15089,-0.08383,9.96807,-0.00973,-0.00333,-0.01532
10259,128,-0.64,1.24,-0.06,128,0,-0.20837,-0.08862,9.92496,-0.00799,-0.00173,-0.01879
10269,128,-0.65,1.23,-0.06,128,0,-0.18202,-0.02874,10.20278,-0.01292,0.00826,-0.01945
10279,128,-0.65,1.23,-0.05,128,0,-0.35446,-0.06467,10.08543,-0.01332,0.00333,-0.01572
10289,128,-0.65,1.24,-0.05,128,0,-0.30656,-0.05748,9.82677,-0.01492,-0.00160,-0.01545
