Timestamp,Throttle,Roll,Pitch,Yaw,KillSwitch,Emergency,Ax_ms2,Ay_ms2,Az_ms2,Gx_rps,Gy_rps,Gz_rps,Ref_Roll,Ref_Pitch,Ref_YawRate
# Flight Data Log - Single Flight Mode
# Generated by Starship Hand Controller
# Timestamp: milliseconds since loop start (flight time)
# Control values: 0-255 (127=center)
# Emergency: 1=active, 0=normal
# File overwrites on each restart
# ========================
2336,,,,,,,, # System startup - Hand Controller initialized
20051,,,,,,,, # Flight started - Loop timestamp zero point set
0,49,0.00,0.00,0.00,255,0,0.00000,0.00000,0.00000,0.00000,0.00000,0.00000,-5.00000,0.00000,0.00000
10,49,0.00,0.00,0.00,255,0,0.00000,0.00000,0.00000,0.00000,0.00000,0.00000,-5.00000,0.00000,0.00000
20,49,0.06,-0.10,0.00,255,0,-0.10299,0.14610,10.04471,-0.01119,-0.01346,-0.00653,-5.00000,0.00000,0.00000
30,49,-0.05,-0.11,-0.00,255,0,-0.11257,0.12215,10.03992,-0.01039,-0.01119,-0.00560,-5.00000,0.00000,0.00000
40,49,0.05,-0.06,0.00,255,0,-0.11975,0.10778,10.03274,-0.00919,-0.01466,-0.00786,-5.00000,0.00000,0.00000
50,49,-0.06,-0.09,-0.00,255,0,-0.11496,0.12933,10.01358,-0.01186,-0.01346,-0.00440,-5.00000,0.00000,0.00000
60,49,-0.15,-0.01,-0.00,255,0,-0.11496,0.06227,10.05429,-0.01026,-0.01066,-0.00666,-5.00000,0.00000,0.00000
70,49,-0.05,-0.07,-0.00,255,0,-0.12215,0.11736,10.04950,-0.01119,-0.01053,-0.00773,-5.00000,0.00000,0.00000
80,49,-0.15,-0.02,-0.00,255,0,-0.11496,0.11017,10.04471,-0.00879,-0.00999,-0.00653,-5.00000,0.00000,0.00000
90,49,-0.05,-0.07,0.00,255,0,-0.10299,0.14610,10.03753,-0.01092,-0.00853,-0.00693,-5.00000,0.00000,0.00000
100,49,-0.04,0.05,-0.00,255,0,-0.14610,0.13891,10.03753,-0.00893,-0.01159,-0.00506,-5.00000,0.00000,0.00000
110,49,-0.06,-0.07,-0.00,255,0,-0.12694,0.12215,10.03274,-0.01013,-0.00946,-0.00586,-5.00000,0.00000,0.00000
120,49,0.01,0.03,-0.00,255,0,-0.13412,0.16047,10.05190,-0.00973,-0.00933,-0.00813,-5.00000,0.00000,0.00000
130,49,-0.05,0.13,0.00,255,0,-0.15089,0.14131,10.03513,-0.01039,-0.00893,-0.00666,-5.00000,0.00000,0.00000
140,50,0.02,0.04,0.00,255,0,-0.13891,0.14370,10.02316,-0.01146,-0.00853,-0.00786,-5.00000,0.00000,0.00000
150,50,0.13,0.08,0.00,255,0,-0.12933,0.16047,10.03513,-0.01172,-0.01053,-0.00719,-5.00000,0.00000,0.00000
160,50,0.04,0.01,0.00,255,0,-0.09101,0.13412,10.03274,-0.01066,-0.01092,-0.00640,-5.00000,0.00000,0.00000
170,50,-0.03,0.10,0.00,255,0,-0.13652,0.13891,10.02316,-0.00959,-0.00973,-0.00506,-5.00000,0.00000,0.00000
180,50,0.06,0.03,0.00,255,0,-0.11975,0.17244,10.02316,-0.00919,-0.01306,-0.00626,-5.00000,0.00000,0.00000
190,50,0.15,0.10,0.00,255,0,-0.14849,0.15089,10.03753,-0.00986,-0.01026,-0.00866,-5.00000,0.00000,0.00000
200,50,0.08,0.01,0.00,255,0,-0.12454,0.16765,10.03992,-0.01079,-0.01159,-0.00533,-5.00000,0.00000,0.00000
210,50,0.03,0.11,0.00,255,0,-0.14131,0.11257,10.04950,-0.00986,-0.01039,-0.00466,-5.00000,0.00000,0.00000
220,49,0.12,0.03,-0.00,255,0,-0.16047,0.14370,10.04232,-0.01053,-0.01186,-0.00386,-5.00000,0.00000,0.00000
230,49,0.00,0.04,-0.00,255,0,-0.09341,0.11496,10.03274,-0.00986,-0.01079,-0.00560,-5.00000,0.00000,0.00000
240,49,0.09,0.11,-0.00,255,0,-0.14370,0.13412,10.03034,-0.01066,-0.01346,-0.00493,-5.00000,0.00000,0.00000
250,49,0.00,0.04,-0.00,255,0,-0.13173,0.13652,10.04232,-0.00999,-0.01226,-0.00773,-5.00000,0.00000,0.00000
260,49,-0.10,0.10,-0.00,255,0,-0.12215,0.11017,10.04711,-0.01226,-0.00973,-0.00613,-5.00000,0.00000,0.00000
270,49,-0.06,-0.01,-0.00,255,0,-0.09101,0.08383,10.03274,-0.00813,-0.01106,-0.00653,-5.00000,0.00000,0.00000
280,49,0.05,-0.00,-0.00,255,0,-0.11257,0.13891,10.00400,-0.01026,-0.01106,-0.00813,-5.00000,0.00000,0.00000
290,49,-0.06,-0.00,-0.00,255,0,-0.12694,0.12454,10.01358,-0.00999,-0.01226,-0.00573,-5.00000,0.00000,0.00000
300,50,0.05,-0.00,-0.00,255,0,-0.12215,0.15807,10.03753,-0.00853,-0.01252,-0.00440,-5.00000,0.00000,0.00000
310,50,-0.06,0.01,-0.00,255,0,-0.12454,0.17005,10.04950,-0.01066,-0.01186,-0.00520,-5.00000,0.00000,0.00000
320,50,0.05,-0.01,-0.00,255,0,-0.11257,0.15807,10.05190,-0.00986,-0.01266,-0.00733,-5.00000,0.00000,0.00000
330,50,-0.06,-0.03,-0.00,255,0,-0.11975,0.13412,10.00160,-0.01106,-0.01146,-0.00693,-5.00000,0.00000,0.00000
340,50,0.05,0.00,-0.00,255,0,-0.13652,0.17484,10.03034,-0.01053,-0.01053,-0.00613,-5.00000,0.00000,0.00000
350,50,0.08,0.11,-0.00,255,0,-0.14131,0.12454,10.04471,-0.01013,-0.01146,-0.00533,-5.00000,0.00000,0.00000
360,50,0.07,-0.00,-0.00,255,0,-0.10299,0.15807,10.02795,-0.00959,-0.01199,-0.00333,-5.00000,0.00000,0.00000
370,50,0.00,0.09,-0.00,255,0,-0.14370,0.12694,10.01358,-0.01319,-0.01132,-0.00560,-5.00000,0.00000,0.00000
380,50,0.09,0.02,-0.00,255,0,-0.15807,0.12694,10.03753,-0.00986,-0.01119,-0.00693,-5.00000,0.00000,0.00000
390,50,-0.02,0.06,-0.01,255,0,-0.12215,0.11017,10.03513,-0.01079,-0.01039,-0.00573,-5.00000,0.00000,0.00000
400,50,-0.04,-0.05,-0.01,255,0,-0.12215,0.11736,10.03034,-0.01132,-0.01412,-0.00719,-5.00000,0.00000,0.00000
410,50,-0.04,0.06,-0.01,255,0,-0.13173,0.11496,10.07585,-0.01039,-0.01212,-0.00613,-5.00000,0.00000,0.00000
420,50,-0.01,-0.05,-0.01,255,0,-0.06946,0.14370,10.03753,-0.00813,-0.01013,-0.00586,-5.00000,0.00000,0.00000
430,50,0.07,0.03,-0.01,255,0,-0.11257,0.15568,10.02795,-0.01066,-0.01146,-0.00346,-5.00000,0.00000,0.00000
440,50,-0.03,-0.01,-0.01,255,0,-0.13891,0.11736,10.04471,-0.01079,-0.01346,-0.00480,-5.00000,0.00000,0.00000
450,50,0.03,0.08,-0.01,255,0,-0.14131,0.13173,10.02316,-0.00959,-0.01279,-0.00653,-5.00000,0.00000,0.00000
460,49,-0.04,-0.01,-0.01,255,0,-0.11257,0.12215,10.04950,-0.00959,-0.00933,-0.00533,-5.00000,0.00000,0.00000
470,49,0.07,-0.07,-0.01,255,0,-0.09101,0.14849,10.04711,-0.01199,-0.01039,-0.00533,-5.00000,0.00000,0.00000
480,49,-0.03,-0.00,-0.01,255,0,-0.12454,0.13173,10.03274,-0.01212,-0.01026,-0.00786,-5.00000,0.00000,0.00000
490,49,0.08,-0.01,-0.01,255,0,-0.12933,0.15568,10.03034,-0.01079,-0.01266,-0.00626,-5.00000,0.00000,0.00000
500,49,-0.03,-0.03,-0.01,255,0,-0.10778,0.13173,10.02555,-0.01119,-0.01092,-0.00733,-5.00000,0.00000,0.00000
510,49,0.07,0.02,-0.01,255,0,-0.13412,0.14610,10.03034,-0.01186,-0.01053,-0.00666,-5.00000,0.00000,0.00000
520,49,-0.04,0.00,-0.01,255,0,-0.13412,0.14849,10.02795,-0.01079,-0.00653,-0.00600,-5.00000,0.00000,0.00000
530,49,0.07,0.03,-0.01,255,0,-0.13173,0.14610,10.03753,-0.00853,-0.01279,-0.00546,-5.00000,0.00000,0.00000
540,50,-0.04,0.04,-0.01,255,0,-0.13412,0.12933,10.02555,-0.01146,-0.01119,-0.00426,-5.00000,0.00000,0.00000
550,50,0.05,-0.03,-0.01,255,0,-0.09341,0.13412,10.03753,-0.01066,-0.01053,-0.00600,-5.00000,0.00000,0.00000
560,50,-0.06,-0.00,-0.01,255,0,-0.11975,0.09341,10.04232,-0.00919,-0.01066,-0.00506,-5.00000,0.00000,0.00000
570,50,-0.02,-0.11,-0.01,255,0,-0.11257,0.10538,10.02076,-0.00973,-0.01013,-0.00733,-5.00000,0.00000,0.00000
580,50,-0.06,-0.00,-0.01,255,0,-0.13173,0.11496,10.03034,-0.01119,-0.01199,-0.00493,-5.00000,0.00000,0.00000
590,50,-0.10,0.11,-0.01,255,0,-0.16047,0.11017,10.05190,-0.00959,-0.01026,-0.00693,-5.00000,0.00000,0.00000
600,50,-0.06,-0.00,-0.01,255,0,-0.12215,0.12454,10.04232,-0.01292,-0.01106,-0.00466,-5.00000,0.00000,0.00000
610,50,-0.17,0.04,-0.01,255,0,-0.11017,0.09580,10.06148,-0.01013,-0.00973,-0.00666,-5.00000,0.00000,0.00000
620,49,-0.06,0.02,-0.01,255,0,-0.13891,0.09101,10.04471,-0.00959,-0.00986,-0.00546,-5.00000,0.00000,0.00000
630,49,-0.17,0.05,-0.01,255,0,-0.13173,0.12454,10.05429,-0.00986,-0.00866,-0.00613,-5.00000,0.00000,0.00000
640,49,-0.05,0.06,-0.01,255,0,-0.14370,0.15328,10.03274,-0.01066,-0.00933,-0.00586,-5.00000,0.00000,0.00000
650,49,-0.13,-0.03,-0.01,255,0,-0.10538,0.11496,10.01118,-0.00933,-0.00986,-0.00693,-5.00000,0.00000,0.00000
660,49,-0.03,0.04,-0.01,255,0,-0.12454,0.14131,10.02076,-0.01266,-0.01079,-0.00480,-5.00000,0.00000,0.00000
670,49,-0.02,-0.07,-0.01,255,0,-0.11736,0.14370,10.03513,-0.01039,-0.01066,-0.00586,-5.00000,0.00000,0.00000
680,49,0.00,0.04,-0.01,255,0,-0.11017,0.14849,10.02555,-0.01079,-0.01013,-0.00493,-5.00000,0.00000,0.00000
690,49,-0.05,-0.06,-0.01,255,0,-0.10538,0.11257,10.02316,-0.00919,-0.01186,-0.00813,-5.00000,0.00000,0.00000
700,50,0.02,0.02,-0.01,255,0,-0.12933,0.14849,10.04232,-0.00986,-0.01359,-0.00693,-5.00000,0.00000,0.00000
710,50,0.03,-0.09,-0.01,255,0,-0.11736,0.15807,10.03034,-0.00919,-0.01199,-0.00600,-5.00000,0.00000,0.00000
720,50,0.02,0.02,-0.01,255,0,-0.13652,0.13652,10.02076,-0.01159,-0.01079,-0.00666,-5.00000,0.00000,0.00000
730,50,-0.03,0.13,-0.01,255,0,-0.15328,0.12933,10.04471,-0.01026,-0.01239,-0.00613,-5.00000,0.00000,0.00000
740,50,-0.02,0.01,-0.01,255,0,-0.13891,0.10538,10.02795,-0.00906,-0.00853,-0.00693,-5.00000,0.00000,0.00000
750,50,0.08,0.06,-0.01,255,0,-0.10538,0.15089,10.02555,-0.01159,-0.01039,-0.00839,-5.00000,0.00000,0.00000
760,50,-0.03,0.03,-0.01,255,0,-0.12933,0.11017,10.03034,-0.01266,-0.01506,-0.00839,-5.00000,0.00000,0.00000
770,50,0.03,-0.07,-0.01,255,0,-0.10059,0.14370,10.04232,-0.00999,-0.01306,-0.00653,-5.00000,0.00000,0.00000
780,49,0.01,0.04,-0.01,255,0,-0.11017,0.15568,10.01358,-0.01079,-0.00866,-0.00813,-5.00000,0.00000,0.00000
790,49,-0.01,-0.07,-0.01,255,0,-0.12215,0.12215,10.04471,-0.01066,-0.01119,-0.00746,-5.00000,0.00000,0.00000
800,49,-0.07,0.02,-0.01,255,0,-0.11257,0.09580,10.04950,-0.00813,-0.01279,-0.00906,-5.00000,0.00000,0.00000
810,49,-0.03,-0.09,-0.01,255,0,-0.07904,0.13173,10.04232,-0.01132,-0.01172,-0.00640,-5.00000,0.00000,0.00000
820,49,0.01,0.02,-0.01,255,0,-0.10538,0.13891,10.01837,-0.01212,-0.01159,-0.00733,-5.00000,0.00000,0.00000
830,49,0.00,-0.09,-0.01,255,0,-0.10059,0.15328,10.03034,-0.01092,-0.01212,-0.00546,-5.00000,0.00000,0.00000
840,49,-0.10,-0.04,-0.01,255,0,-0.11496,0.09820,10.05190,-0.01039,-0.01159,-0.00653,-5.00000,0.00000,0.00000
850,49,-0.02,-0.12,-0.01,255,0,-0.09341,0.11736,10.02316,-0.01212,-0.01186,-0.00733,-5.00000,0.00000,0.00000
860,49,-0.06,-0.02,-0.01,255,0,-0.10059,0.14370,10.00879,-0.00986,-0.01132,-0.00666,-5.00000,0.00000,0.00000
870,49,0.01,-0.11,-0.01,255,0,-0.11496,0.14849,10.03274,-0.01252,-0.01146,-0.00560,-5.00000,0.00000,0.00000
880,49,-0.08,-0.04,-0.01,255,0,-0.10778,0.12215,10.03274,-0.01119,-0.00946,-0.00600,-5.00000,0.00000,0.00000
890,49,0.01,-0.10,-0.01,255,0,-0.10778,0.13173,10.03753,-0.01079,-0.00959,-0.00586,-5.00000,0.00000,0.00000
900,49,0.04,0.01,-0.01,255,0,-0.11736,0.16047,10.03274,-0.01172,-0.01346,-0.00560,-5.00000,0.00000,0.00000
910,49,-0.04,-0.07,-0.01,255,0,-0.12454,0.10059,10.04711,-0.01026,-0.01066,-0.00733,-5.00000,0.00000,0.00000
920,49,0.01,0.03,-0.01,255,0,-0.12454,0.12694,10.05429,-0.01106,-0.00959,-0.00693,-5.00000,0.00000,0.00000
930,49,-0.04,-0.07,-0.01,255,0,-0.14131,0.14370,10.04711,-0.00946,-0.00813,-0.00653,-5.00000,0.00000,0.00000
940,50,-0.06,0.04,-0.01,255,0,-0.13891,0.09341,10.04232,-0.00959,-0.01266,-0.00693,-5.00000,0.00000,0.00000
950,50,-0.04,-0.08,-0.01,255,0,-0.11257,0.12454,10.04950,-0.01053,-0.01279,-0.00493,-5.00000,0.00000,0.00000
960,50,-0.06,0.04,-0.01,255,0,-0.14131,0.12454,10.04711,-0.01053,-0.00986,-0.00919,-5.00000,0.00000,0.00000
970,50,-0.02,-0.07,-0.01,255,0,-0.13412,0.12454,10.04711,-0.01026,-0.01239,-0.00600,-5.00000,0.00000,0.00000
980,50,-0.03,0.04,-0.01,255,0,-0.13891,0.14131,10.03753,-0.01066,-0.01039,-0.00626,-5.00000,0.00000,0.00000
990,50,0.07,0.00,-0.01,255,0,-0.11736,0.15568,10.03753,-0.01159,-0.00973,-0.00613,-5.00000,0.00000,0.00000
1000,50,-0.03,0.05,-0.01,255,0,-0.12694,0.14370,10.02555,-0.01039,-0.00799,-0.00640,-5.00000,0.00000,0.00000
1010,50,0.01,-0.06,-0.01,255,0,-0.11017,0.11257,10.04950,-0.01252,-0.01132,-0.00480,-5.00000,0.00000,0.00000
1020,50,-0.02,0.06,-0.01,255,0,-0.11736,0.14131,10.01837,-0.01013,-0.01212,-0.00480,-5.00000,0.00000,0.00000
1030,49,0.02,-0.05,-0.01,255,0,-0.09580,0.14610,10.01118,-0.00919,-0.00866,-0.00853,-5.00000,0.00000,0.00000
1040,49,0.02,0.06,-0.01,255,0,-0.11017,0.14370,10.03513,-0.01159,-0.00879,-0.00573,-5.00000,0.00000,0.00000
1050,49,0.02,-0.05,-0.01,255,0,-0.14131,0.13652,10.01597,-0.00919,-0.01039,-0.00786,-5.00000,0.00000,0.00000
1060,49,-0.02,0.06,-0.01,255,0,-0.11496,0.12454,10.02316,-0.01226,-0.01399,-0.00453,-5.00000,0.00000,0.00000
1070,49,0.01,-0.05,-0.01,255,0,-0.12454,0.12694,10.02795,-0.00959,-0.01306,-0.00706,-5.00000,0.00000,0.00000
1080,49,-0.02,0.06,-0.01,255,0,-0.12694,0.13173,10.04711,-0.01239,-0.01172,-0.00626,-5.00000,0.00000,0.00000
1090,49,0.09,0.03,-0.01,255,0,-0.17005,0.12933,10.04232,-0.01026,-0.01266,-0.00400,-5.00000,0.00000,0.00000
1100,49,-0.02,0.06,-0.01,255,0,-0.12694,0.14849,10.02795,-0.00906,-0.00973,-0.00640,-5.00000,0.00000,0.00000
1110,50,0.03,-0.05,-0.01,255,0,-0.09820,0.12694,10.03513,-0.00933,-0.01013,-0.00786,-5.00000,0.00000,0.00000
1120,50,-0.03,0.05,-0.01,255,0,-0.11017,0.13173,10.03513,-0.01266,-0.01239,-0.00453,-5.00000,0.00000,0.00000
1130,50,-0.02,-0.06,-0.01,255,0,-0.09101,0.11496,10.04232,-0.00959,-0.01172,-0.00520,-5.00000,0.00000,0.00000
1140,50,-0.04,0.05,-0.01,255,0,-0.13891,0.12454,10.04471,-0.01092,-0.01226,-0.00506,-5.00000,0.00000,0.00000
1150,50,-0.06,-0.06,-0.01,255,0,-0.10059,0.10778,10.03992,-0.00919,-0.01053,-0.00493,-5.00000,0.00000,0.00000
1160,50,-0.08,0.05,-0.01,255,0,-0.09341,0.11975,10.02316,-0.01026,-0.00893,-0.00520,-5.00000,0.00000,0.00000
1170,50,-0.02,-0.05,-0.01,255,0,-0.12215,0.15089,10.02076,-0.01026,-0.01079,-0.00653,-5.00000,0.00000,0.00000
1180,50,-0.08,0.05,-0.01,255,0,-0.12215,0.12454,10.06866,-0.00933,-0.01092,-0.00719,-5.00000,0.00000,0.00000
1190,49,-0.03,-0.05,-0.01,255,0,-0.14131,0.11257,10.02555,-0.01053,-0.01106,-0.00706,-5.00000,0.00000,0.00000
1200,49,0.01,0.06,-0.01,255,0,-0.13173,0.16047,10.04232,-0.00946,-0.01079,-0.00706,-5.00000,0.00000,0.00000
1210,49,0.02,-0.05,-0.01,255,0,-0.11736,0.15089,10.03753,-0.00893,-0.00999,-0.00693,-5.00000,0.00000,0.00000
1220,49,-0.00,0.06,-0.01,255,0,-0.11017,0.13412,10.01118,-0.01239,-0.01146,-0.00719,-5.00000,0.00000,0.00000
1230,49,-0.00,-0.06,-0.01,255,0,-0.13891,0.12454,10.04471,-0.01186,-0.01132,-0.00826,-5.00000,0.00000,0.00000
1240,49,0.05,0.05,-0.01,255,0,-0.12933,0.16526,10.00639,-0.01186,-0.01426,-0.00866,-5.00000,0.00000,0.00000
1250,49,0.04,-0.07,-0.01,255,0,-0.11975,0.15089,10.03274,-0.00959,-0.01226,-0.00493,-5.00000,0.00000,0.00000
1260,49,0.05,0.04,-0.01,255,0,-0.11257,0.13891,10.02795,-0.01146,-0.01159,-0.00679,-5.00000,0.00000,0.00000
1270,50,0.02,-0.07,-0.01,255,0,-0.12694,0.13412,10.04232,-0.01026,-0.01066,-0.00480,-5.00000,0.00000,0.00000
1280,50,0.05,0.04,-0.01,255,0,-0.11975,0.14131,10.03992,-0.01159,-0.00853,-0.00799,-5.00000,0.00000,0.00000
1290,50,0.08,-0.07,-0.01,255,0,-0.11017,0.16286,10.05429,-0.01092,-0.01279,-0.00719,-5.00000,0.00000,0.00000
1300,50,0.05,0.05,-0.01,255,0,-0.11496,0.14610,10.03753,-0.01132,-0.00866,-0.00573,-5.00000,0.00000,0.00000
1310,50,0.03,-0.07,-0.01,255,0,-0.11736,0.12215,10.03274,-0.01039,-0.01226,-0.00560,-5.00000,0.00000,0.00000
1320,50,-0.05,0.01,-0.01,255,0,-0.10778,0.10059,10.04711,-0.01172,-0.01053,-0.00679,-5.00000,0.00000,0.00000
1330,50,-0.03,-0.10,-0.01,255,0,-0.11496,0.10059,10.04711,-0.00826,-0.01239,-0.00799,-5.00000,0.00000,0.00000
1340,50,-0.08,-0.00,-0.01,255,0,-0.14610,0.09101,10.05190,-0.01239,-0.01119,-0.00493,-5.00000,0.00000,0.00000
1350,49,0.03,0.01,-0.01,255,0,-0.12215,0.15568,10.05429,-0.00933,-0.00906,-0.00679,-5.00000,0.00000,0.00000
1360,49,-0.08,-0.03,-0.01,255,0,-0.10299,0.12454,10.06866,-0.01146,-0.01106,-0.00653,-5.00000,0.00000,0.00000
1370,49,-0.09,-0.15,-0.01,255,0,-0.08862,0.09580,10.04232,-0.01053,-0.01239,-0.00613,-5.00000,0.00000,0.00000
1380,49,-0.09,-0.03,-0.01,255,0,-0.12933,0.10778,10.03992,-0.01079,-0.01066,-0.00413,-5.00000,0.00000,0.00000
1390,49,0.02,-0.01,-0.01,255,0,-0.12454,0.15568,10.05669,-0.00879,-0.00973,-0.00640,-5.00000,0.00000,0.00000
1400,49,-0.09,0.02,-0.01,255,0,-0.14849,0.10778,10.01597,-0.00853,-0.01212,-0.00493,-5.00000,0.00000,0.00000
1410,49,0.01,-0.04,-0.01,255,0,-0.11975,0.12215,10.04471,-0.01066,-0.01386,-0.00719,-5.00000,0.00000,0.00000
1420,49,-0.05,0.06,-0.01,255,0,-0.12694,0.16765,10.03992,-0.00999,-0.01079,-0.00706,-5.00000,0.00000,0.00000
1430,49,0.04,-0.01,-0.01,255,0,-0.15089,0.12454,10.04471,-0.01106,-0.01146,-0.00679,-5.00000,0.00000,0.00000
1440,49,-0.06,0.05,-0.01,255,0,-0.12933,0.11017,10.04711,-0.00986,-0.01186,-0.00813,-5.00000,0.00000,0.00000
1450,49,-0.05,-0.07,-0.01,255,0,-0.11496,0.11736,10.04711,-0.01066,-0.01026,-0.00506,-5.00000,0.00000,0.00000
1460,49,-0.02,0.04,-0.01,255,0,-0.14131,0.15328,9.99202,-0.01146,-0.01199,-0.01013,-5.00000,0.00000,0.00000
1470,49,-0.10,-0.04,-0.01,255,0,-0.11017,0.11257,10.02555,-0.00853,-0.01252,-0.00866,-5.00000,0.00000,0.00000
1480,49,-0.04,0.06,-0.01,255,0,-0.16047,0.13412,10.03274,-0.00919,-0.01106,-0.00653,-5.00000,0.00000,0.00000
1490,49,0.08,0.03,-0.01,255,0,-0.12215,0.14370,10.03274,-0.01119,-0.01585,-0.00453,-5.00000,0.00000,0.00000
1500,49,-0.03,0.06,-0.01,255,0,-0.13652,0.13173,10.03034,-0.01013,-0.01186,-0.00706,-5.00000,0.00000,0.00000
1510,50,0.06,-0.00,-0.01,255,0,-0.12454,0.13173,10.01837,-0.01039,-0.01119,-0.00746,-5.00000,0.00000,0.00000
1520,50,-0.04,0.05,-0.01,255,0,-0.12694,0.10538,10.03753,-0.00986,-0.01172,-0.00573,-5.00000,0.00000,0.00000
1530,50,-0.13,-0.03,-0.01,255,0,-0.11017,0.10299,10.04950,-0.00879,-0.00799,-0.00466,-5.00000,0.00000,0.00000
1540,50,-0.04,0.04,-0.01,255,0,-0.12694,0.12694,10.03753,-0.00906,-0.01039,-0.00759,-5.00000,0.00000,0.00000
1550,50,-0.15,0.04,-0.01,255,0,-0.14131,0.12454,10.05190,-0.00893,-0.01306,-0.00626,-5.00000,0.00000,0.00000
1560,50,-0.04,0.03,-0.01,255,0,-0.11975,0.14131,10.03753,-0.00959,-0.01399,-0.00653,-5.00000,0.00000,0.00000
1570,50,0.05,-0.04,-0.01,255,0,-0.10299,0.16047,10.03274,-0.01066,-0.01279,-0.00586,-5.00000,0.00000,0.00000
1580,50,-0.04,0.02,-0.01,255,0,-0.12215,0.12454,10.03274,-0.00946,-0.00946,-0.00706,-5.00000,0.00000,0.00000
1590,49,0.07,0.02,-0.01,255,0,-0.13652,0.16286,10.03034,-0.01066,-0.01026,-0.00520,-5.00000,0.00000,0.00000
1600,49,-0.04,-0.01,-0.01,255,0,-0.10778,0.12454,10.04232,-0.01119,-0.01212,-0.00786,-5.00000,0.00000,0.00000
1610,49,0.06,0.05,-0.01,255,0,-0.12694,0.11975,10.03753,-0.01013,-0.01239,-0.00600,-5.00000,0.00000,0.00000
1620,49,-0.02,-0.03,-0.01,255,0,-0.10299,0.13173,10.01597,-0.01039,-0.01199,-0.00560,-5.00000,0.00000,0.00000
1630,49,-0.04,0.08,-0.01,255,0,-0.13652,0.11496,10.03753,-0.01159,-0.01066,-0.00493,-5.00000,0.00000,0.00000
1640,49,-0.01,-0.03,-0.01,255,0,-0.11975,0.13652,10.03992,-0.01159,-0.01319,-0.00746,-5.00000,0.00000,0.00000
1650,49,-0.04,0.08,-0.01,255,0,-0.14849,0.12215,10.04232,-0.01132,-0.01066,-0.00546,-5.00000,0.00000,0.00000
1660,49,-0.01,-0.03,-0.01,255,0,-0.11017,0.13412,10.02076,-0.01039,-0.01172,-0.00493,-5.00000,0.00000,0.00000
1670,50,-0.11,0.03,-0.01,255,0,-0.10299,0.11736,10.04232,-0.01079,-0.01132,-0.00733,-5.00000,0.00000,0.00000
1680,50,-0.02,-0.05,-0.01,255,0,-0.10778,0.12215,10.02795,-0.01092,-0.01439,-0.00813,-5.00000,0.00000,0.00000
1690,50,-0.12,0.02,-0.01,255,0,-0.11017,0.12933,10.05190,-0.00999,-0.01159,-0.00440,-5.00000,0.00000,0.00000
1700,50,-0.02,-0.05,-0.01,255,0,-0.10538,0.13891,10.06148,-0.00986,-0.01079,-0.00600,-5.00000,0.00000,0.00000
1710,50,-0.14,-0.03,-0.01,255,0,-0.11496,0.11496,10.02795,-0.00999,-0.01186,-0.00759,-5.00000,0.00000,0.00000
1720,50,-0.02,-0.05,-0.01,255,0,-0.11496,0.11496,10.00400,-0.00986,-0.01053,-0.00679,-5.00000,0.00000,0.00000
1730,50,-0.14,-0.06,-0.01,255,0,-0.10778,0.12215,10.03753,-0.00919,-0.01132,-0.00759,-5.00000,0.00000,0.00000
1740,50,-0.04,-0.11,-0.01,255,0,-0.07425,0.11975,10.03034,-0.01292,-0.01053,-0.00506,-5.00000,0.00000,0.00000
1750,49,-0.04,0.00,-0.01,255,0,-0.13891,0.14370,10.02316,-0.01106,-0.01092,-0.00679,-5.00000,0.00000,0.00000
1760,49,-0.06,-0.11,-0.01,255,0,-0.12215,0.11736,10.02316,-0.00919,-0.01212,-0.00546,-5.00000,0.00000,0.00000
1770,49,0.02,-0.02,-0.01,255,0,-0.11736,0.16765,10.01597,-0.00999,-0.00933,-0.00626,-5.00000,0.00000,0.00000
1780,49,0.04,0.09,-0.01,255,0,-0.15328,0.15328,10.04950,-0.01146,-0.01146,-0.00440,-5.00000,0.00000,0.00000
1790,49,0.04,-0.02,-0.01,255,0,-0.11257,0.15568,10.02555,-0.00986,-0.01053,-0.00600,-5.00000,0.00000,0.00000
1800,49,0.15,-0.07,-0.01,255,0,-0.10538,0.14370,10.02076,-0.01079,-0.01066,-0.00520,-5.00000,0.00000,0.00000
1810,49,0.04,-0.05,-0.01,255,0,-0.09341,0.15328,10.03274,-0.01132,-0.01146,-0.00640,-5.00000,0.00000,0.00000
1820,49,0.14,-0.00,-0.01,255,0,-0.13412,0.16286,10.00879,-0.00999,-0.01172,-0.00706,-5.00000,0.00000,0.00000
1830,50,0.03,-0.01,-0.01,255,0,-0.13652,0.11496,10.05190,-0.01106,-0.00933,-0.00706,-5.00000,0.00000,0.00000
1840,50,-0.06,-0.09,-0.01,255,0,-0.10538,0.11017,10.02795,-0.00906,-0.01132,-0.00453,-5.00000,0.00000,0.00000
1850,50,-0.01,0.02,-0.01,255,0,-0.14131,0.11496,10.03753,-0.00973,-0.01212,-0.00520,-5.00000,0.00000,0.00000
1860,50,-0.02,-0.09,-0.01,255,0,-0.10299,0.13412,10.03992,-0.01132,-0.00906,-0.00640,-5.00000,0.00000,0.00000
1870,50,-0.00,0.02,-0.01,255,0,-0.12454,0.13412,10.02316,-0.01026,-0.01212,-0.00679,-5.00000,0.00000,0.00000
1880,50,-0.10,-0.04,-0.01,255,0,-0.13412,0.11496,10.01597,-0.01066,-0.01226,-0.00506,-5.00000,0.00000,0.00000
1890,50,-0.02,0.04,-0.02,255,0,-0.15328,0.13891,10.03992,-0.01039,-0.01053,-0.00586,-5.00000,0.00000,0.00000
1900,50,0.07,-0.03,-0.02,255,0,-0.11496,0.14370,10.05429,-0.00973,-0.01066,-0.00719,-5.00000,0.00000,0.00000
1910,50,-0.03,0.03,-0.02,255,0,-0.11975,0.12215,10.03034,-0.01013,-0.01186,-0.00560,-5.00000,0.00000,0.00000
1920,50,-0.04,0.14,-0.02,255,0,-0.16047,0.11736,10.04711,-0.00946,-0.01292,-0.00573,-5.00000,0.00000,0.00000
1930,50,-0.02,0.03,-0.02,255,0,-0.11257,0.13891,10.01837,-0.01106,-0.01279,-0.00746,-5.00000,0.00000,0.00000
1940,50,0.01,-0.09,-0.02,255,0,-0.09820,0.13652,10.02076,-0.01053,-0.01186,-0.00733,-5.00000,0.00000,0.00000
1950,50,0.01,0.03,-0.01,255,0,-0.11257,0.14849,10.04950,-0.01372,-0.01039,-0.00773,-5.00000,0.00000,0.00000
1960,50,-0.02,-0.08,-0.01,255,0,-0.10778,0.12215,10.03753,-0.00933,-0.01053,-0.00773,-5.00000,0.00000,0.00000
1970,50,0.03,0.02,-0.01,255,0,-0.10778,0.14131,10.01597,-0.00973,-0.00986,-0.00480,-5.00000,0.00000,0.00000
1980,50,-0.04,-0.07,-0.01,255,0,-0.12215,0.12454,10.02076,-0.01053,-0.01159,-0.00866,-5.00000,0.00000,0.00000
1990,49,0.04,0.01,-0.01,255,0,-0.13412,0.16047,10.02795,-0.00786,-0.01212,-0.00573,-5.00000,0.00000,0.00000
2000,49,-0.04,-0.07,-0.01,255,0,-0.10059,0.11975,10.03034,-0.00826,-0.01146,-0.00520,-5.00000,0.00000,0.00000
2010,49,0.01,0.03,-0.01,255,0,-0.14370,0.12933,10.04232,-0.00946,-0.00973,-0.00453,-5.00000,0.00000,0.00000
2020,49,-0.09,-0.02,-0.02,255,0,-0.12215,0.09341,10.02555,-0.01039,-0.01172,-0.00453,-5.00000,0.00000,0.00000
2030,49,0.01,0.03,-0.02,255,0,-0.12933,0.14131,10.03034,-0.01146,-0.01186,-0.00653,-5.00000,0.00000,0.00000
2040,49,-0.02,-0.08,-0.02,255,0,-0.09580,0.15089,10.02555,-0.00893,-0.01106,-0.00546,-5.00000,0.00000,0.00000
2050,49,0.01,0.03,-0.02,255,0,-0.14370,0.14131,10.03034,-0.00879,-0.01292,-0.00693,-5.00000,0.00000,0.00000
2060,49,-0.09,-0.02,-0.02,255,0,-0.12933,0.11496,10.03992,-0.01252,-0.01186,-0.00386,-5.00000,0.00000,0.00000
2070,50,-0.02,0.07,-0.02,255,0,-0.14610,0.10778,10.01118,-0.00933,-0.01039,-0.00919,-5.00000,0.00000,0.00000
2080,50,-0.05,-0.04,-0.02,255,0,-0.10299,0.13173,10.03274,-0.00959,-0.01119,-0.00813,-5.00000,0.00000,0.00000
2090,50,-0.04,0.07,-0.02,255,0,-0.15807,0.12454,10.01837,-0.00973,-0.01226,-0.00719,-5.00000,0.00000,0.00000
2100,50,-0.05,-0.04,-0.02,255,0,-0.11975,0.12454,10.04711,-0.01346,-0.01079,-0.00573,-5.00000,0.00000,0.00000
2110,50,0.02,0.05,-0.02,255,0,-0.11975,0.17005,10.03992,-0.00866,-0.01106,-0.00413,-5.00000,0.00000,0.00000
2120,50,0.02,-0.07,-0.02,255,0,-0.13173,0.14849,10.05429,-0.00933,-0.01186,-0.00733,-5.00000,0.00000,0.00000
2130,50,0.03,0.04,-0.02,255,0,-0.11736,0.13891,10.04471,-0.01239,-0.01226,-0.00653,-5.00000,0.00000,0.00000
2140,50,0.07,-0.06,-0.02,255,0,-0.11257,0.15089,10.04232,-0.00893,-0.00879,-0.00533,-5.00000,0.00000,0.00000
2150,49,0.01,0.04,-0.02,255,0,-0.10059,0.14131,10.03513,-0.01066,-0.00973,-0.00626,-5.00000,0.00000,0.00000
2160,49,0.05,-0.07,-0.02,255,0,-0.11496,0.13173,10.01358,-0.01039,-0.00946,-0.00706,-5.00000,0.00000,0.00000
2170,49,0.09,0.04,-0.02,255,0,-0.11496,0.17005,10.02795,-0.01092,-0.01306,-0.00839,-5.00000,0.00000,0.00000
2180,49,0.01,-0.04,-0.02,255,0,-0.12933,0.11736,10.03753,-0.01039,-0.01013,-0.00600,-5.00000,0.00000,0.00000
2190,49,0.07,0.06,-0.02,255,0,-0.12694,0.13412,10.04232,-0.01053,-0.00919,-0.00480,-5.00000,0.00000,0.00000
2200,49,0.01,-0.04,-0.02,255,0,-0.09580,0.12933,10.02316,-0.00999,-0.01119,-0.00679,-5.00000,0.00000,0.00000
2210,49,0.09,0.04,-0.02,255,0,-0.12215,0.14370,10.01597,-0.00839,-0.01359,-0.00653,-5.00000,0.00000,0.00000
2220,49,0.00,-0.03,-0.02,255,0,-0.13891,0.14849,10.05908,-0.01039,-0.01066,-0.00666,-5.00000,0.00000,0.00000
2230,50,0.03,0.08,-0.02,255,0,-0.12454,0.11736,10.02316,-0.01013,-0.01386,-0.00533,-5.00000,0.00000,0.00000
2240,50,0.03,-0.03,-0.02,255,0,-0.11975,0.15089,10.03274,-0.01053,-0.01359,-0.00546,-5.00000,0.00000,0.00000
2250,50,0.02,0.08,-0.02,255,0,-0.14610,0.13412,10.03034,-0.00933,-0.00999,-0.00693,-5.00000,0.00000,0.00000
2260,50,0.09,-0.01,-0.02,255,0,-0.13173,0.16286,10.05429,-0.00786,-0.00973,-0.00613,-5.00000,0.00000,0.00000
2270,50,0.09,0.10,-0.02,255,0,-0.12215,0.17244,10.03513,-0.01066,-0.00933,-0.00826,-5.00000,0.00000,0.00000
2280,50,0.07,-0.01,-0.02,255,0,-0.11496,0.13412,10.01358,-0.01239,-0.01172,-0.00826,-5.00000,0.00000,0.00000
2290,50,0.18,0.01,-0.02,255,0,-0.11496,0.19879,10.02795,-0.01092,-0.01013,-0.00520,-5.00000,0.00000,0.00000
2300,50,0.06,0.01,-0.02,255,0,-0.12933,0.14849,10.00639,-0.01186,-0.01399,-0.00426,-5.00000,0.00000,0.00000
2310,49,0.09,0.12,-0.02,255,0,-0.15089,0.11017,10.04232,-0.00906,-0.01053,-0.00759,-5.00000,0.00000,0.00000
2320,49,0.06,0.01,-0.02,255,0,-0.12694,0.14370,10.04471,-0.00946,-0.01212,-0.00573,-5.00000,0.00000,0.00000
2330,49,-0.03,0.09,-0.02,255,0,-0.11496,0.12454,10.02555,-0.01039,-0.01186,-0.00493,-5.00000,0.00000,0.00000
2340,49,0.01,-0.02,-0.02,255,0,-0.10299,0.10538,10.02795,-0.00959,-0.01279,-0.00586,-5.00000,0.00000,0.00000
2350,49,-0.10,-0.02,-0.02,255,0,-0.10299,0.13173,10.04471,-0.00919,-0.01306,-0.00719,-5.00000,0.00000,0.00000
2360,49,0.01,-0.03,-0.02,255,0,-0.11496,0.14131,10.03753,-0.00773,-0.01159,-0.00546,-5.00000,0.00000,0.00000
2370,49,-0.09,0.02,-0.02,255,0,-0.12933,0.10778,10.05190,-0.00906,-0.01026,-0.00626,-5.00000,0.00000,0.00000
2380,49,-0.01,-0.06,-0.02,255,0,-0.10059,0.12215,10.03992,-0.01026,-0.01013,-0.00759,-5.00000,0.00000,0.00000
2390,50,-0.02,0.06,-0.02,255,0,-0.14610,0.14610,10.04950,-0.01053,-0.01239,-0.00826,-5.00000,0.00000,0.00000
2400,50,0.04,-0.04,-0.02,255,0,-0.13173,0.14849,10.00639,-0.00959,-0.01039,-0.00679,-5.00000,0.00000,0.00000
2410,50,-0.02,0.05,-0.02,255,0,-0.11257,0.13652,10.03992,-0.00999,-0.01359,-0.00733,-5.00000,0.00000,0.00000
2420,50,0.04,-0.04,-0.02,255,0,-0.13412,0.12694,10.02555,-0.00946,-0.01132,-0.00613,-5.00000,0.00000,0.00000
2430,50,-0.03,0.05,-0.02,255,0,-0.11496,0.13412,10.02316,-0.00973,-0.00973,-0.00546,-5.00000,0.00000,0.00000
2440,50,0.06,-0.02,-0.02,255,0,-0.12933,0.15089,10.03034,-0.00946,-0.00866,-0.00826,-5.00000,0.00000,0.00000
2450,50,-0.05,-0.02,-0.02,255,0,-0.09820,0.11496,10.03513,-0.01026,-0.01159,-0.00640,-5.00000,0.00000,0.00000
2460,50,0.06,-0.06,-0.02,255,0,-0.10778,0.12215,10.04232,-0.00986,-0.00959,-0.00693,-5.00000,0.00000,0.00000
2470,50,-0.05,-0.03,-0.02,255,0,-0.11496,0.09580,10.04471,-0.00906,-0.01092,-0.00826,-5.00000,0.00000,0.00000
2480,50,-0.04,0.08,-0.01,255,0,-0.14849,0.13173,10.04471,-0.01159,-0.01106,-0.00666,-5.00000,0.00000,0.00000
2490,50,-0.04,-0.03,-0.01,255,0,-0.10059,0.13652,10.06148,-0.01199,-0.00959,-0.00546,-5.00000,0.00000,0.00000
2500,50,0.06,0.02,-0.01,255,0,-0.13173,0.17005,10.02076,-0.00986,-0.01199,-0.00679,-5.00000,0.00000,0.00000
2510,50,-0.05,0.03,-0.01,255,0,-0.14849,0.14131,10.01597,-0.00986,-0.01039,-0.00586,-5.00000,0.00000,0.00000
2520,50,0.05,-0.02,-0.02,255,0,-0.10778,0.12694,10.02316,-0.01106,-0.00866,-0.00480,-5.00000,0.00000,0.00000
2530,50,-0.05,0.04,-0.02,255,0,-0.12694,0.13173,10.03274,-0.01053,-0.01079,-0.00360,-5.00000,0.00000,0.00000
2540,50,0.06,-0.00,-0.02,255,0,-0.12694,0.14610,10.01837,-0.01013,-0.01239,-0.00666,-5.00000,0.00000,0.00000
2550,49,-0.02,0.08,-0.02,255,0,-0.14849,0.13412,10.01837,-0.01186,-0.01372,-0.00693,-5.00000,0.00000,0.00000
2560,49,-0.02,-0.04,-0.02,255,0,-0.11975,0.10538,10.02076,-0.01079,-0.01039,-0.00400,-5.00000,0.00000,0.00000
2570,49,-0.02,0.08,-0.02,255,0,-0.13412,0.13412,10.02795,-0.01266,-0.00999,-0.00466,-5.00000,0.00000,0.00000
2580,49,0.03,-0.02,-0.02,255,0,-0.11975,0.15089,10.05429,-0.01039,-0.01013,-0.00759,-5.00000,0.00000,0.00000
2590,49,0.06,0.09,-0.02,255,0,-0.13412,0.16765,10.03034,-0.01039,-0.01026,-0.00613,-5.00000,0.00000,0.00000
2600,49,0.05,-0.03,-0.02,255,0,-0.13652,0.14849,10.04950,-0.01026,-0.01106,-0.00573,-5.00000,0.00000,0.00000
2610,49,0.01,0.08,-0.02,255,0,-0.12694,0.11975,10.05908,-0.00933,-0.01146,-0.00786,-5.00000,0.00000,0.00000
2620,49,0.03,-0.03,-0.02,255,0,-0.13652,0.13173,10.03513,-0.00973,-0.01119,-0.00573,-5.00000,0.00000,0.00000
2630,50,-0.01,0.07,-0.02,255,0,-0.13412,0.11496,10.04471,-0.01106,-0.01239,-0.00706,-5.00000,0.00000,0.00000
2640,50,-0.10,0.00,-0.02,255,0,-0.11736,0.08862,10.00879,-0.00999,-0.00986,-0.00626,-5.00000,0.00000,0.00000
2650,50,-0.01,0.07,-0.02,255,0,-0.12933,0.13173,10.07106,-0.01066,-0.01279,-0.00693,-5.00000,0.00000,0.00000
2660,50,-0.01,-0.05,-0.02,255,0,-0.11017,0.15807,10.02795,-0.00973,-0.01053,-0.00520,-5.00000,0.00000,0.00000
2670,50,-0.05,0.06,-0.02,255,0,-0.12215,0.11017,10.02795,-0.00813,-0.01013,-0.00613,-5.00000,0.00000,0.00000
2680,50,-0.02,-0.05,-0.02,255,0,-0.12694,0.12454,10.03274,-0.00986,-0.01319,-0.00640,-5.00000,0.00000,0.00000
2690,50,0.10,-0.04,-0.02,255,0,-0.06706,0.16047,10.01118,-0.01079,-0.01053,-0.00546,-5.00000,0.00000,0.00000
2700,50,-0.02,-0.06,-0.02,255,0,-0.10538,0.12694,10.03513,-0.00973,-0.01119,-0.00560,-5.00000,0.00000,0.00000
2710,49,0.03,0.05,-0.02,255,0,-0.14131,0.13891,10.03034,-0.00866,-0.01226,-0.00679,-5.00000,0.00000,0.00000
2720,49,-0.02,-0.06,-0.02,255,0,-0.10299,0.12694,10.02076,-0.01013,-0.00839,-0.00839,-5.00000,0.00000,0.00000
2730,49,0.05,0.03,-0.02,255,0,-0.11736,0.13891,10.03034,-0.01039,-0.01159,-0.00773,-5.00000,0.00000,0.00000
2740,49,-0.03,-0.05,-0.02,255,0,-0.14370,0.14610,10.02795,-0.01106,-0.01039,-0.00746,-5.00000,0.00000,0.00000
2750,49,0.04,0.05,-0.02,255,0,-0.13173,0.13412,10.05190,-0.00906,-0.01226,-0.00600,-5.00000,0.00000,0.00000
2760,49,-0.02,-0.05,-0.02,255,0,-0.12215,0.14131,10.04711,-0.01079,-0.01159,-0.00693,-5.00000,0.00000,0.00000
2770,49,0.04,0.05,-0.02,255,0,-0.11736,0.13173,10.03753,-0.01066,-0.01306,-0.00706,-5.00000,0.00000,0.00000
2780,49,0.10,-0.05,-0.02,255,0,-0.14131,0.17005,10.04232,-0.01026,-0.00999,-0.00719,-5.00000,0.00000,0.00000
2790,50,0.01,0.03,-0.02,255,0,-0.13652,0.10299,10.05669,-0.00879,-0.00879,-0.00586,-5.00000,0.00000,0.00000
2800,50,-0.10,0.04,-0.02,255,0,-0.12215,0.13891,10.04711,-0.00999,-0.00919,-0.00706,-5.00000,0.00000,0.00000
2810,50,0.01,0.02,-0.02,255,0,-0.11736,0.13891,10.01358,-0.01053,-0.01172,-0.00640,-5.00000,0.00000,0.00000
2820,50,-0.03,-0.09,-0.02,255,0,-0.11257,0.12933,10.04471,-0.00919,-0.01132,-0.00733,-5.00000,0.00000,0.00000
2830,50,0.02,0.02,-0.02,255,0,-0.12454,0.13891,10.03513,-0.00919,-0.01226,-0.00706,-5.00000,0.00000,0.00000
2840,50,0.13,0.01,-0.02,255,0,-0.13173,0.15568,10.03034,-0.01119,-0.00986,-0.00466,-5.00000,0.00000,0.00000
2850,50,0.04,-0.06,-0.02,255,0,-0.08622,0.18202,10.02555,-0.01039,-0.01026,-0.00453,-5.00000,0.00000,0.00000
2860,50,0.16,-0.07,-0.02,255,0,-0.08383,0.16286,10.01837,-0.01159,-0.01332,-0.00480,-5.00000,0.00000,0.00000
2870,49,0.05,-0.05,-0.02,255,0,-0.11736,0.14610,10.01358,-0.01053,-0.01292,-0.00679,-5.00000,0.00000,0.00000
2880,49,0.13,0.03,-0.02,255,0,-0.15807,0.14849,10.02795,-0.00986,-0.01346,-0.00679,-5.00000,0.00000,0.00000
2890,49,0.03,-0.03,-0.02,255,0,-0.11736,0.12933,10.02795,-0.00786,-0.01092,-0.00733,-5.00000,0.00000,0.00000
2900,49,0.04,0.08,-0.02,255,0,-0.12933,0.11496,10.03513,-0.00839,-0.01186,-0.00586,-5.00000,0.00000,0.00000
2910,49,0.04,-0.03,-0.02,255,0,-0.12694,0.14370,10.03274,-0.00919,-0.01212,-0.00546,-5.00000,0.00000,0.00000
2920,49,0.11,0.06,-0.02,255,0,-0.11975,0.16286,10.04471,-0.01359,-0.01186,-0.00666,-5.00000,0.00000,0.00000
2930,49,0.03,-0.02,-0.02,255,0,-0.11257,0.11975,10.03034,-0.00946,-0.01199,-0.00706,-5.00000,0.00000,0.00000
2940,49,-0.03,-0.12,-0.02,255,0,-0.08383,0.11496,10.04232,-0.01013,-0.01172,-0.00746,-5.00000,0.00000,0.00000
2950,50,0.02,-0.02,-0.02,255,0,-0.14849,0.14849,10.02076,-0.00986,-0.01292,-0.00879,-5.00000,0.00000,0.00000
2960,50,-0.05,0.07,-0.02,255,0,-0.14131,0.11257,10.02795,-0.01066,-0.01039,-0.00533,-5.00000,0.00000,0.00000
2970,50,0.01,-0.03,-0.02,255,0,-0.10299,0.13412,10.03034,-0.00999,-0.01066,-0.00600,-5.00000,0.00000,0.00000
2980,50,-0.07,0.06,-0.02,255,0,-0.13652,0.11496,10.04950,-0.00826,-0.01066,-0.00626,-5.00000,0.00000,0.00000
2990,50,0.01,-0.03,-0.02,255,0,-0.11736,0.13412,10.03034,-0.01146,-0.01399,-0.00773,-5.00000,0.00000,0.00000
3000,50,-0.08,0.05,-0.02,255,0,-0.12933,0.11736,10.03034,-0.01212,-0.01332,-0.00600,-5.00000,0.00000,0.00000
3010,50,-0.00,-0.04,-0.02,255,0,-0.09341,0.14610,10.02795,-0.00986,-0.01332,-0.00626,-5.00000,0.00000,0.00000
3020,50,0.03,-0.15,-0.02,255,0,-0.09341,0.14370,10.05908,-0.01066,-0.00933,-0.00653,-5.00000,0.00000,0.00000
3030,50,-0.00,-0.04,-0.02,255,0,-0.14131,0.12454,10.04950,-0.01092,-0.01186,-0.00826,-5.00000,0.00000,0.00000
3040,50,0.01,0.08,-0.02,255,0,-0.13412,0.14131,10.02316,-0.01092,-0.01199,-0.00533,-5.00000,0.00000,0.00000
3050,50,-0.02,-0.03,-0.02,255,0,-0.14370,0.13173,10.02316,-0.01279,-0.01212,-0.00386,-5.00000,0.00000,0.00000
3060,50,0.02,0.07,-0.02,255,0,-0.12933,0.13652,10.01358,-0.00999,-0.01172,-0.00786,-5.00000,0.00000,0.00000
3070,50,-0.02,-0.03,-0.02,255,0,-0.13412,0.13652,10.02316,-0.00999,-0.00893,-0.00466,-5.00000,0.00000,0.00000
3080,50,0.05,0.06,-0.02,255,0,-0.12933,0.15807,10.03034,-0.00946,-0.01452,-0.00666,-5.00000,0.00000,0.00000
3090,50,-0.04,-0.02,-0.02,255,0,-0.11496,0.11736,10.03753,-0.00959,-0.01106,-0.00400,-5.00000,0.00000,0.00000
3100,50,0.02,0.08,-0.02,255,0,-0.10778,0.10538,10.02555,-0.00906,-0.01212,-0.00586,-5.00000,0.00000,0.00000
3110,49,-0.04,-0.02,-0.02,255,0,-0.10059,0.11736,10.01837,-0.01212,-0.01079,-0.00733,-5.00000,0.00000,0.00000
3120,49,-0.11,0.07,-0.02,255,0,-0.13891,0.11496,10.05908,-0.00946,-0.01226,-0.00600,-5.00000,0.00000,0.00000
3130,49,-0.03,-0.02,-0.02,255,0,-0.09580,0.15089,10.03274,-0.01039,-0.01332,-0.00520,-5.00000,0.00000,0.00000
3140,49,0.02,-0.12,-0.02,255,0,-0.10299,0.13173,10.03513,-0.01106,-0.01039,-0.00719,-5.00000,0.00000,0.00000
3150,49,-0.01,-0.01,-0.02,255,0,-0.12694,0.14131,10.01597,-0.01079,-0.00999,-0.00666,-5.00000,0.00000,0.00000
3160,49,-0.05,-0.12,-0.02,255,0,-0.10299,0.11496,10.03753,-0.00813,-0.01172,-0.00999,-5.00000,0.00000,0.00000
3170,49,-0.08,-0.00,-0.02,255,0,-0.12215,0.09101,10.03274,-0.01132,-0.01199,-0.00866,-5.00000,0.00000,0.00000
3180,49,0.02,-0.05,-0.02,255,0,-0.13173,0.13891,10.01837,-0.01079,-0.01119,-0.00799,-5.00000,0.00000,0.00000
3190,50,-0.08,-0.00,-0.02,255,0,-0.12694,0.11496,10.02555,-0.00999,-0.01359,-0.00400,-5.00000,0.00000,0.00000
3200,50,-0.02,-0.10,-0.02,255,0,-0.10059,0.12454,10.06148,-0.00879,-0.00879,-0.00786,-5.00000,0.00000,0.00000
3210,50,-0.00,0.01,-0.02,255,0,-0.09580,0.16286,10.04950,-0.00906,-0.00986,-0.00706,-5.00000,0.00000,0.00000
3220,50,-0.02,-0.10,-0.02,255,0,-0.11736,0.13412,10.00639,-0.00786,-0.01252,-0.00626,-5.00000,0.00000,0.00000
3230,50,-0.03,0.01,-0.02,255,0,-0.14370,0.11736,10.02555,-0.01039,-0.01106,-0.00466,-5.00000,0.00000,0.00000
3240,50,0.05,-0.07,-0.02,255,0,-0.12454,0.14370,10.02795,-0.01013,-0.01119,-0.00560,-5.00000,0.00000,0.00000
3250,50,-0.01,0.03,-0.02,255,0,-0.15568,0.13412,10.01597,-0.01053,-0.01026,-0.00640,-5.00000,0.00000,0.00000
3260,50,-0.03,0.14,-0.02,255,0,-0.13412,0.13173,10.01597,-0.00999,-0.01119,-0.00733,-5.00000,0.00000,0.00000
3270,50,0.01,0.04,-0.02,255,0,-0.13891,0.14131,10.03992,-0.01053,-0.01252,-0.00573,-5.00000,0.00000,0.00000
3280,49,0.08,0.13,-0.02,255,0,-0.14131,0.15807,10.07585,-0.00879,-0.00853,-0.00973,-5.00000,0.00000,0.00000
3290,49,0.04,0.02,-0.02,255,0,-0.09341,0.14370,10.02555,-0.01053,-0.01319,-0.00693,-5.00000,0.00000,0.00000
3300,49,-0.07,-0.02,-0.02,255,0,-0.11017,0.10059,10.03274,-0.01079,-0.01066,-0.00493,-5.00000,0.00000,0.00000
3310,49,0.02,0.05,-0.02,255,0,-0.13652,0.12215,10.02555,-0.01066,-0.01332,-0.00879,-5.00000,0.00000,0.00000
3320,49,-0.08,-0.02,-0.02,255,0,-0.12215,0.11975,10.03753,-0.01066,-0.01039,-0.00600,-5.00000,0.00000,0.00000
3330,49,0.02,0.04,-0.01,255,0,-0.13173,0.15089,10.00879,-0.01092,-0.01199,-0.00893,-5.00000,0.00000,0.00000
3340,49,0.02,-0.07,-0.01,255,0,-0.11496,0.15807,10.03034,-0.00999,-0.01319,-0.00506,-5.00000,0.00000,0.00000
3350,49,0.05,0.04,-0.01,255,0,-0.10778,0.15089,10.02076,-0.00759,-0.01199,-0.00626,-5.00000,0.00000,0.00000
3360,50,0.08,-0.08,-0.01,255,0,-0.10538,0.16286,10.05190,-0.01066,-0.01359,-0.00693,-5.00000,0.00000,0.00000
3370,50,0.07,0.04,-0.01,255,0,-0.11496,0.15089,10.03992,-0.01319,-0.01013,-0.00533,-5.00000,0.00000,0.00000
3380,50,0.08,-0.08,-0.02,255,0,-0.10778,0.14610,10.03034,-0.01053,-0.01252,-0.00613,-5.00000,0.00000,0.00000
3390,50,0.02,0.02,-0.01,255,0,-0.10538,0.13652,10.01118,-0.00959,-0.01132,-0.00786,-5.00000,0.00000,0.00000
3400,50,0.05,-0.09,-0.02,255,0,-0.09580,0.12694,10.00879,-0.00866,-0.01172,-0.00413,-5.00000,0.00000,0.00000
3410,50,-0.05,-0.03,-0.02,255,0,-0.11017,0.11736,10.03992,-0.00866,-0.01026,-0.00586,-5.00000,0.00000,0.00000
3420,50,0.06,-0.07,-0.02,255,0,-0.12454,0.13412,10.03274,-0.01026,-0.00933,-0.00679,-5.00000,0.00000,0.00000
3430,50,-0.04,-0.01,-0.02,255,0,-0.13412,0.11736,10.04232,-0.01026,-0.00906,-0.00653,-5.00000,0.00000,0.00000
3440,49,0.07,0.03,-0.02,255,0,-0.15328,0.15568,10.04711,-0.00933,-0.00773,-0.00653,-5.00000,0.00000,0.00000
3450,49,-0.04,-0.02,-0.02,255,0,-0.12215,0.14131,10.02316,-0.00946,-0.01119,-0.00413,-5.00000,0.00000,0.00000
3460,49,0.07,0.03,-0.02,255,0,-0.11017,0.11017,10.02076,-0.00986,-0.01199,-0.00679,-5.00000,0.00000,0.00000
3470,49,-0.02,-0.04,-0.02,255,0,-0.10299,0.13652,10.04471,-0.01039,-0.00999,-0.00600,-5.00000,0.00000,0.00000
3480,49,-0.03,-0.15,-0.02,255,0,-0.10299,0.11736,10.03513,-0.01186,-0.01172,-0.00573,-5.00000,0.00000,0.00000
3490,49,-0.02,-0.04,-0.02,255,0,-0.15089,0.12933,10.03513,-0.01199,-0.01212,-0.00826,-5.00000,0.00000,0.00000
3500,49,-0.09,0.05,-0.02,255,0,-0.12215,0.10299,10.02076,-0.01146,-0.01199,-0.00679,-5.00000,0.00000,0.00000
3510,49,-0.01,-0.02,-0.02,255,0,-0.11017,0.15568,10.00400,-0.00946,-0.01186,-0.00773,-5.00000,0.00000,0.00000
3520,49,-0.11,0.04,-0.02,255,0,-0.12454,0.11736,10.04471,-0.00959,-0.01079,-0.00706,-5.00000,0.00000,0.00000
3530,49,-0.00,-0.02,-0.02,255,0,-0.10299,0.16526,10.05908,-0.00986,-0.01106,-0.00640,-5.00000,0.00000,0.00000
3540,49,0.06,0.08,-0.02,255,0,-0.12454,0.12215,10.01118,-0.01106,-0.01132,-0.00773,-5.00000,0.00000,0.00000
3550,49,-0.01,-0.02,-0.02,255,0,-0.13412,0.14131,10.05190,-0.00959,-0.00946,-0.00573,-5.00000,0.00000,0.00000
3560,49,0.11,-0.01,-0.02,255,0,-0.11017,0.16047,10.02795,-0.00799,-0.00986,-0.00560,-5.00000,0.00000,0.00000
3570,49,-0.00,-0.03,-0.02,255,0,-0.10778,0.10059,10.04232,-0.01359,-0.01226,-0.00746,-5.00000,0.00000,0.00000
3580,49,-0.11,0.02,-0.02,255,0,-0.12454,0.12215,10.01837,-0.00919,-0.01279,-0.00520,-5.00000,0.00000,0.00000
3590,49,0.00,-0.00,-0.02,255,0,-0.13173,0.14849,10.03034,-0.01199,-0.01359,-0.00613,-5.00000,0.00000,0.00000
3600,50,-0.10,-0.06,-0.02,255,0,-0.11496,0.12694,10.05190,-0.00839,-0.01106,-0.00613,-5.00000,0.00000,0.00000
3610,50,-0.01,0.02,-0.02,255,0,-0.14849,0.13412,10.04232,-0.01159,-0.01146,-0.00546,-5.00000,0.00000,0.00000
3620,50,0.09,0.07,-0.02,255,0,-0.12933,0.14370,10.02555,-0.01013,-0.00986,-0.00666,-5.00000,0.00000,0.00000
3630,50,-0.00,-0.00,-0.02,255,0,-0.09820,0.12215,10.05669,-0.01212,-0.01013,-0.00440,-5.00000,0.00000,0.00000
3640,50,-0.10,-0.07,-0.02,255,0,-0.10299,0.10538,10.05669,-0.01119,-0.01186,-0.00866,-5.00000,0.00000,0.00000
3650,50,0.00,-0.00,-0.02,255,0,-0.11975,0.13652,10.05908,-0.00973,-0.00986,-0.00586,-5.00000,0.00000,0.00000
3660,50,-0.11,0.04,-0.02,255,0,-0.15328,0.10538,10.02795,-0.01146,-0.01452,-0.00786,-5.00000,0.00000,0.00000
3670,50,-0.01,-0.03,-0.02,255,0,-0.11496,0.12215,10.05429,-0.01146,-0.01172,-0.00719,-5.00000,0.00000,0.00000
3680,49,-0.12,0.00,-0.02,255,0,-0.10778,0.11257,10.05190,-0.01026,-0.01119,-0.00480,-5.00000,0.00000,0.00000
3690,49,-0.01,-0.03,-0.02,255,0,-0.11257,0.14370,10.08064,-0.00973,-0.01026,-0.00600,-5.00000,0.00000,0.00000
3700,49,-0.12,-0.05,-0.02,255,0,-0.10538,0.11975,10.02795,-0.01026,-0.01226,-0.00560,-5.00000,0.00000,0.00000
3710,49,-0.01,-0.02,-0.02,255,0,-0.11975,0.11736,10.01837,-0.01053,-0.00933,-0.00386,-5.00000,0.00000,0.00000
3720,49,-0.12,0.02,-0.02,255,0,-0.13891,0.13412,10.00879,-0.01119,-0.00919,-0.00626,-5.00000,0.00000,0.00000
3730,49,-0.02,-0.03,-0.02,255,0,-0.08383,0.16526,10.03513,-0.01199,-0.01026,-0.00586,-5.00000,0.00000,0.00000
3740,49,0.04,0.06,-0.02,255,0,-0.14610,0.12933,10.04711,-0.00959,-0.01092,-0.00533,-5.00000,0.00000,0.00000
3750,49,-0.02,-0.03,-0.02,255,0,-0.11736,0.12933,10.03034,-0.01132,-0.00999,-0.00533,-5.00000,0.00000,0.00000
3760,50,0.08,0.03,-0.02,255,0,-0.11257,0.13652,10.06148,-0.00919,-0.00999,-0.00613,-5.00000,0.00000,0.00000
3770,50,-0.03,-0.01,-0.02,255,0,-0.13412,0.13173,10.04232,-0.01106,-0.01039,-0.00773,-5.00000,0.00000,0.00000
3780,50,0.08,0.00,-0.02,255,0,-0.11975,0.15568,10.01358,-0.01226,-0.01292,-0.00693,-5.00000,0.00000,0.00000
3790,50,-0.03,0.01,-0.02,255,0,-0.13412,0.11736,10.02076,-0.01332,-0.01159,-0.00733,-5.00000,0.00000,0.00000
3800,50,0.07,-0.03,-0.02,255,0,-0.10778,0.15328,10.03513,-0.01106,-0.00986,-0.00506,-5.00000,0.00000,0.00000
3810,50,-0.04,0.01,-0.02,255,0,-0.12454,0.11496,10.03034,-0.00959,-0.01226,-0.00746,-5.00000,0.00000,0.00000
3820,50,0.03,-0.08,-0.02,255,0,-0.08143,0.14370,10.03513,-0.01186,-0.01266,-0.00759,-5.00000,0.00000,0.00000
3830,50,0.02,0.03,-0.02,255,0,-0.15328,0.15089,10.00879,-0.01306,-0.00853,-0.00786,-5.00000,0.00000,0.00000
3840,49,0.02,-0.08,-0.02,255,0,-0.13173,0.13412,10.04711,-0.01146,-0.01026,-0.00586,-5.00000,0.00000,0.00000
3850,49,-0.01,0.03,-0.02,255,0,-0.09820,0.12215,10.00879,-0.01252,-0.01306,-0.00573,-5.00000,0.00000,0.00000
3860,49,-0.04,-0.08,-0.02,255,0,-0.13412,0.11496,10.03274,-0.01199,-0.00959,-0.00480,-5.00000,0.00000,0.00000
3870,49,-0.01,0.03,-0.02,255,0,-0.11017,0.12694,10.03992,-0.00799,-0.01159,-0.00839,-5.00000,0.00000,0.00000
3880,49,-0.00,-0.08,-0.02,255,0,-0.11257,0.14370,10.02795,-0.01186,-0.01159,-0.00520,-5.00000,0.00000,0.00000
3890,49,0.02,0.03,-0.02,255,0,-0.12215,0.14610,10.03513,-0.00906,-0.01306,-0.00546,-5.00000,0.00000,0.00000
3900,49,-0.04,-0.07,-0.02,255,0,-0.11496,0.11496,10.04471,-0.00973,-0.01252,-0.00733,-5.00000,0.00000,0.00000
3910,49,-0.05,0.05,-0.02,255,0,-0.15089,0.10299,10.02076,-0.00946,-0.01172,-0.00440,-5.00000,0.00000,0.00000
3920,50,-0.05,-0.07,-0.02,255,0,-0.11257,0.12454,10.04471,-0.00719,-0.01279,-0.00799,-5.00000,0.00000,0.00000
3930,50,0.00,0.03,-0.02,255,0,-0.11257,0.15089,10.01837,-0.01292,-0.01092,-0.00600,-5.00000,0.00000,0.00000
3940,50,0.00,-0.08,-0.02,255,0,-0.11736,0.14849,10.03992,-0.01013,-0.01279,-0.00560,-5.00000,0.00000,0.00000
3950,50,0.04,0.03,-0.02,255,0,-0.14849,0.16047,10.03034,-0.01039,-0.01239,-0.00480,-5.00000,0.00000,0.00000
3960,50,-0.08,0.01,-0.02,255,0,-0.12454,0.10538,10.03753,-0.00839,-0.01039,-0.00706,-5.00000,0.00000,0.00000
3970,50,0.04,-0.01,-0.02,255,0,-0.10299,0.13173,10.03513,-0.01066,-0.01332,-0.00666,-5.00000,0.00000,0.00000
3980,50,0.00,0.09,-0.02,255,0,-0.12694,0.16526,10.04711,-0.00986,-0.01092,-0.00813,-5.00000,0.00000,0.00000
3990,50,0.06,-0.00,-0.02,255,0,-0.13652,0.15328,10.05429,-0.00973,-0.01079,-0.00586,-5.00000,0.00000,0.00000
4000,49,-0.03,0.07,-0.02,255,0,-0.12454,0.12933,10.02316,-0.01013,-0.01172,-0.00640,-5.00000,0.00000,0.00000
4010,49,0.06,-0.01,-0.02,255,0,-0.12215,0.13652,10.04232,-0.00999,-0.01212,-0.00626,-5.00000,0.00000,0.00000
4020,49,-0.04,0.06,-0.02,255,0,-0.13891,0.11257,10.02795,-0.00986,-0.01106,-0.00679,-5.00000,0.00000,0.00000
4030,49,-0.02,-0.06,-0.02,255,0,-0.11017,0.10778,10.03274,-0.01092,-0.00959,-0.00719,-5.00000,0.00000,0.00000
4040,49,0.01,0.06,-0.02,255,0,-0.12694,0.15089,10.01358,-0.00719,-0.01053,-0.00586,-5.00000,0.00000,0.00000
4050,49,0.01,-0.06,-0.02,255,0,-0.12694,0.14370,10.05190,-0.01053,-0.01306,-0.00773,-5.00000,0.00000,0.00000
4060,49,0.01,0.06,-0.02,255,0,-0.14131,0.13652,10.02316,-0.01252,-0.00946,-0.00640,-5.00000,0.00000,0.00000
4070,49,-0.01,-0.06,-0.02,255,0,-0.10778,0.12694,10.03274,-0.01212,-0.00959,-0.00746,-5.00000,0.00000,0.00000
4080,49,0.06,0.03,-0.02,255,0,-0.08862,0.14370,10.02795,-0.00999,-0.01266,-0.00440,-5.00000,0.00000,0.00000
4090,49,0.03,-0.08,-0.02,255,0,-0.12694,0.16765,10.02795,-0.00919,-0.00973,-0.00573,-5.00000,0.00000,0.00000
4100,49,0.10,0.01,-0.02,255,0,-0.10059,0.15089,10.03992,-0.01066,-0.01279,-0.00413,-5.00000,0.00000,0.00000
4110,49,0.03,-0.08,-0.02,255,0,-0.11017,0.13891,10.02555,-0.01279,-0.01226,-0.00839,-5.00000,0.00000,0.00000
4120,49,0.07,0.02,-0.02,255,0,-0.13891,0.14370,10.04950,-0.01226,-0.01559,-0.00640,-5.00000,0.00000,0.00000
4130,49,0.01,-0.07,-0.02,255,0,-0.11257,0.13173,10.03034,-0.00893,-0.00893,-0.00413,-5.00000,0.00000,0.00000
4140,49,0.03,0.04,-0.02,255,0,-0.13412,0.12454,10.03992,-0.00946,-0.01106,-0.00493,-5.00000,0.00000,0.00000
4150,49,0.01,-0.07,-0.02,255,0,-0.11975,0.13652,10.05429,-0.01186,-0.00959,-0.00733,-5.00000,0.00000,0.00000
4160,50,0.01,0.04,-0.02,255,0,-0.13173,0.12933,10.04950,-0.01066,-0.01146,-0.00586,-5.00000,0.00000,0.00000
4170,50,0.01,-0.07,-0.02,255,0,-0.10538,0.13412,10.04232,-0.00999,-0.01119,-0.00653,-5.00000,0.00000,0.00000
4180,50,0.02,0.04,-0.02,255,0,-0.10059,0.13652,10.04711,-0.01186,-0.00999,-0.00679,-5.00000,0.00000,0.00000
4190,50,-0.03,-0.06,-0.02,255,0,-0.13891,0.12454,10.03274,-0.00919,-0.01066,-0.00679,-5.00000,0.00000,0.00000
4200,50,-0.02,0.06,-0.02,255,0,-0.12933,0.11257,10.02795,-0.01186,-0.01053,-0.00560,-5.00000,0.00000,0.00000
4210,50,-0.03,-0.06,-0.02,255,0,-0.13652,0.12933,10.04471,-0.00959,-0.01013,-0.00506,-5.00000,0.00000,0.00000
4220,50,-0.01,0.06,-0.02,255,0,-0.10059,0.13412,10.05908,-0.00986,-0.01146,-0.00693,-5.00000,0.00000,0.00000
4230,50,-0.06,-0.05,-0.02,255,0,-0.13173,0.11736,10.03753,-0.01212,-0.01092,-0.00613,-5.00000,0.00000,0.00000
4240,49,0.05,-0.00,-0.02,255,0,-0.10059,0.16047,10.03753,-0.00879,-0.01226,-0.00533,-5.00000,0.00000,0.00000
4250,49,-0.03,-0.09,-0.02,255,0,-0.10778,0.14849,10.04232,-0.01026,-0.01212,-0.00560,-5.00000,0.00000,0.00000
4260,49,0.05,-0.00,-0.02,255,0,-0.11975,0.14131,10.03992,-0.01119,-0.01146,-0.00640,-5.00000,0.00000,0.00000
4270,49,-0.01,-0.10,-0.02,255,0,-0.08383,0.12215,10.04471,-0.00999,-0.01226,-0.00706,-5.00000,0.00000,0.00000
4280,49,-0.01,0.01,-0.02,255,0,-0.15089,0.12215,10.05429,-0.01039,-0.00959,-0.00773,-5.00000,0.00000,0.00000
4290,49,0.09,-0.05,-0.02,255,0,-0.13412,0.15328,10.03753,-0.01039,-0.01013,-0.00813,-5.00000,0.00000,0.00000
4300,49,0.02,0.04,-0.02,255,0,-0.14849,0.15089,10.03513,-0.01159,-0.00999,-0.00413,-5.00000,0.00000,0.00000
4310,49,0.00,-0.07,-0.02,255,0,-0.12933,0.12933,10.04471,-0.00946,-0.01039,-0.00600,-5.00000,0.00000,0.00000
4320,50,0.06,0.03,-0.02,255,0,-0.11017,0.16286,10.04950,-0.01092,-0.01292,-0.00466,-5.00000,0.00000,0.00000
4330,50,-0.05,0.04,-0.02,255,0,-0.14131,0.09341,10.07106,-0.01132,-0.01199,-0.00520,-5.00000,0.00000,0.00000
4340,50,0.06,0.06,-0.03,255,0,-0.13891,0.12933,10.04232,-0.00706,-0.01039,-0.00386,-5.00000,0.00000,0.00000
4350,50,-0.05,0.03,-0.03,255,0,-0.12215,0.12215,10.04232,-0.00973,-0.01239,-0.00733,-5.00000,0.00000,0.00000
4360,50,0.05,0.09,-0.03,255,0,-0.12454,0.11257,10.06148,-0.00826,-0.01066,-0.00573,-5.00000,0.00000,0.00000
4370,50,-0.04,0.02,-0.03,255,0,-0.12215,0.13652,10.02795,-0.01159,-0.01226,-0.00546,-5.00000,0.00000,0.00000
4380,50,-0.01,0.13,-0.03,255,0,-0.14849,0.12694,10.05669,-0.01092,-0.01279,-0.00719,-5.00000,0.00000,0.00000
4390,50,-0.02,0.01,-0.03,255,0,-0.16526,0.14370,10.01837,-0.01039,-0.01306,-0.00640,-5.00000,0.00000,0.00000
4400,49,-0.03,0.13,-0.03,255,0,-0.12694,0.12215,10.03992,-0.00986,-0.01172,-0.00440,-5.00000,0.00000,0.00000
4410,49,-0.00,0.01,-0.03,255,0,-0.11257,0.14131,10.03034,-0.01226,-0.01212,-0.00626,-5.00000,0.00000,0.00000
4420,49,0.11,-0.00,-0.03,255,0,-0.09341,0.16286,10.05190,-0.00813,-0.01053,-0.00626,-5.00000,0.00000,0.00000
4430,49,-0.00,0.01,-0.03,255,0,-0.12454,0.11017,10.05429,-0.01132,-0.01146,-0.00733,-5.00000,0.00000,0.00000
4440,49,0.07,0.10,-0.03,255,0,-0.13652,0.14610,10.01118,-0.00959,-0.01013,-0.00733,-5.00000,0.00000,0.00000
4450,49,-0.01,0.02,-0.03,255,0,-0.13652,0.13173,10.01597,-0.00906,-0.01212,-0.00613,-5.00000,0.00000,0.00000
4460,49,0.08,0.09,-0.03,255,0,-0.12454,0.13652,10.02555,-0.00906,-0.00999,-0.00586,-5.00000,0.00000,0.00000
4470,49,0.01,-0.00,-0.03,255,0,-0.10538,0.14370,10.01358,-0.01092,-0.01212,-0.00786,-5.00000,0.00000,0.00000
4480,50,0.09,0.08,-0.03,255,0,-0.14131,0.15568,10.04471,-0.01039,-0.01013,-0.00600,-5.00000,0.00000,0.00000
4490,50,-0.01,0.02,-0.03,255,0,-0.13891,0.12933,10.05429,-0.00973,-0.01159,-0.00666,-5.00000,0.00000,0.00000
4500,50,0.03,0.13,-0.03,255,0,-0.15089,0.11975,10.03513,-0.00959,-0.01292,-0.00786,-5.00000,0.00000,0.00000
4510,50,0.01,0.02,-0.03,255,0,-0.12215,0.14131,10.03034,-0.00973,-0.01292,-0.00719,-5.00000,0.00000,0.00000
4520,50,0.02,0.13,-0.03,255,0,-0.13173,0.13412,10.01837,-0.00946,-0.01053,-0.00533,-5.00000,0.00000,0.00000
4530,50,-0.03,0.03,-0.03,255,0,-0.11017,0.10299,10.04471,-0.01226,-0.01026,-0.00706,-5.00000,0.00000,0.00000
4540,50,-0.05,-0.08,-0.03,255,0,-0.11017,0.12454,10.02316,-0.01172,-0.00946,-0.00466,-5.00000,0.00000,0.00000
4550,50,-0.02,0.03,-0.03,255,0,-0.14131,0.14131,10.04950,-0.01279,-0.01172,-0.00373,-5.00000,0.00000,0.00000
4560,50,0.00,-0.09,-0.03,255,0,-0.10299,0.13173,10.01358,-0.00999,-0.01186,-0.00600,-5.00000,0.00000,0.00000
4570,50,-0.03,0.02,-0.03,255,0,-0.11736,0.12694,10.04471,-0.00640,-0.00879,-0.00493,-5.00000,0.00000,0.00000
4580,50,0.06,-0.05,-0.03,255,0,-0.12933,0.14131,10.03034,-0.01092,-0.00813,-0.00573,-5.00000,0.00000,0.00000
4590,50,-0.03,0.03,-0.03,255,0,-0.14370,0.11017,10.04711,-0.00999,-0.01132,-0.00799,-5.00000,0.00000,0.00000
4600,50,-0.09,0.12,-0.03,255,0,-0.15568,0.11017,10.04471,-0.01066,-0.01279,-0.00666,-5.00000,0.00000,0.00000
4610,50,-0.00,0.05,-0.03,255,0,-0.12933,0.15807,10.03992,-0.00959,-0.01239,-0.00506,-5.00000,0.00000,0.00000
4620,50,-0.05,0.15,-0.03,255,0,-0.15328,0.12933,10.04711,-0.00799,-0.01079,-0.00560,-5.00000,0.00000,0.00000
4630,50,0.01,0.06,-0.03,255,0,-0.12694,0.14849,10.04711,-0.01013,-0.01186,-0.00773,-5.00000,0.00000,0.00000
4640,49,-0.00,0.17,-0.03,255,0,-0.15328,0.13891,10.03274,-0.01026,-0.01252,-0.00440,-5.00000,0.00000,0.00000
4650,49,-0.03,0.06,-0.03,255,0,-0.12215,0.10778,10.00639,-0.01026,-0.01066,-0.00520,-5.00000,0.00000,0.00000
4660,49,0.04,-0.03,-0.03,255,0,-0.09580,0.14370,10.03034,-0.00959,-0.01212,-0.00453,-5.00000,0.00000,0.00000
4670,49,0.00,0.07,-0.03,255,0,-0.12933,0.15328,10.02795,-0.01013,-0.01146,-0.00706,-5.00000,0.00000,0.00000
4680,49,0.08,-0.02,-0.03,255,0,-0.14131,0.14131,10.01118,-0.00893,-0.00933,-0.00719,-5.00000,0.00000,0.00000
4690,49,-0.02,0.05,-0.03,255,0,-0.10538,0.14131,10.05190,-0.00826,-0.01026,-0.00533,-5.00000,0.00000,0.00000
4700,49,0.02,-0.05,-0.03,255,0,-0.12215,0.11257,10.04471,-0.01239,-0.00933,-0.00679,-5.00000,0.00000,0.00000
4710,49,-0.03,0.05,-0.03,255,0,-0.10538,0.13173,10.03034,-0.00906,-0.00946,-0.00613,-5.00000,0.00000,0.00000
4720,50,0.05,-0.04,-0.03,255,0,-0.13412,0.13891,10.02076,-0.01066,-0.01119,-0.00719,-5.00000,0.00000,0.00000
4730,50,0.00,0.07,-0.03,255,0,-0.14370,0.14610,10.05669,-0.01119,-0.01159,-0.00493,-5.00000,0.00000,0.00000
4740,50,0.04,-0.03,-0.03,255,0,-0.10778,0.14370,10.05908,-0.01092,-0.00973,-0.00746,-5.00000,0.00000,0.00000
4750,50,-0.02,0.06,-0.03,255,0,-0.12454,0.12694,10.02555,-0.01279,-0.01359,-0.00613,-5.00000,0.00000,0.00000
4760,50,0.03,-0.04,-0.03,255,0,-0.13412,0.12215,10.02555,-0.01039,-0.00973,-0.00586,-5.00000,0.00000,0.00000
4770,50,0.00,0.07,-0.03,255,0,-0.13652,0.14610,10.03753,-0.01013,-0.01172,-0.00613,-5.00000,0.00000,0.00000
4780,50,0.04,-0.04,-0.03,255,0,-0.10538,0.14370,10.04950,-0.01026,-0.00959,-0.00586,-5.00000,0.00000,0.00000
4790,50,-0.00,0.07,-0.03,255,0,-0.13652,0.12933,10.01118,-0.00919,-0.01092,-0.00679,-5.00000,0.00000,0.00000
4800,49,0.05,-0.03,-0.03,255,0,-0.09820,0.16047,10.02076,-0.01292,-0.00866,-0.00666,-5.00000,0.00000,0.00000
4810,49,0.01,0.07,-0.03,255,0,-0.14131,0.13412,10.05429,-0.01226,-0.01199,-0.00586,-5.00000,0.00000,0.00000
4820,49,0.04,-0.03,-0.03,255,0,-0.12454,0.13173,10.05190,-0.01066,-0.01066,-0.00546,-5.00000,0.00000,0.00000
4830,49,-0.01,0.07,-0.03,255,0,-0.12215,0.13173,10.03034,-0.01132,-0.00853,-0.00586,-5.00000,0.00000,0.00000
4840,49,0.07,-0.01,-0.03,255,0,-0.12215,0.16286,10.01597,-0.01132,-0.01172,-0.00666,-5.00000,0.00000,0.00000
4850,49,-0.04,0.02,-0.03,255,0,-0.10778,0.14370,10.01358,-0.01239,-0.01092,-0.00666,-5.00000,0.00000,0.00000
4860,49,0.07,-0.02,-0.03,255,0,-0.11257,0.14849,10.03274,-0.01092,-0.00959,-0.00600,-5.00000,0.00000,0.00000
4870,49,-0.05,-0.03,-0.03,255,0,-0.11257,0.11017,10.03992,-0.00799,-0.00879,-0.00453,-5.00000,0.00000,0.00000
4880,50,0.07,-0.02,-0.03,255,0,-0.11736,0.13652,10.03753,-0.01332,-0.00946,-0.00600,-5.00000,0.00000,0.00000
4890,50,-0.05,-0.02,-0.04,255,0,-0.11975,0.10059,10.04711,-0.01172,-0.01159,-0.00679,-5.00000,0.00000,0.00000
4900,50,0.01,-0.12,-0.04,255,0,-0.08143,0.13173,10.03992,-0.01053,-0.00959,-0.00386,-5.00000,0.00000,0.00000
4910,50,-0.07,-0.04,-0.04,255,0,-0.11736,0.09820,10.02076,-0.01066,-0.01172,-0.00693,-5.00000,0.00000,0.00000
4920,50,0.03,-0.09,-0.04,255,0,-0.11017,0.13891,10.04471,-0.01079,-0.01013,-0.00773,-5.00000,0.00000,0.00000
4930,50,-0.06,-0.01,-0.04,255,0,-0.13652,0.12694,10.03513,-0.00946,-0.01066,-0.00533,-5.00000,0.00000,0.00000
4940,50,-0.01,-0.12,-0.04,255,0,-0.10299,0.12454,10.01118,-0.01226,-0.01053,-0.00653,-5.00000,0.00000,0.00000
4950,50,-0.01,-0.00,-0.04,255,0,-0.11496,0.15568,10.04232,-0.00959,-0.00973,-0.00813,-5.00000,0.00000,0.00000
4960,49,-0.04,-0.11,-0.04,255,0,-0.13891,0.12933,10.04950,-0.01199,-0.01252,-0.00613,-5.00000,0.00000,0.00000
4970,49,0.01,-0.01,-0.04,255,0,-0.11496,0.14610,10.03992,-0.00973,-0.01199,-0.00693,-5.00000,0.00000,0.00000
4980,49,-0.07,-0.10,-0.04,255,0,-0.08383,0.10059,10.02795,-0.01106,-0.00999,-0.00626,-5.00000,0.00000,0.00000
4990,49,0.03,-0.04,-0.04,255,0,-0.10059,0.13412,10.04232,-0.00999,-0.00986,-0.00466,-5.00000,0.00000,0.00000
5000,49,-0.08,-0.05,-0.04,255,0,-0.13652,0.14131,10.02316,-0.01013,-0.01186,-0.00546,-5.00000,0.00000,0.00000
5010,49,0.03,-0.02,-0.04,255,0,-0.12454,0.13891,10.05429,-0.01106,-0.00773,-0.00586,-5.00000,0.00000,0.00000
5020,49,-0.00,-0.13,-0.04,255,0,-0.07904,0.14849,10.03274,-0.00946,-0.01053,-0.00466,-5.00000,0.00000,0.00000
5030,49,0.04,-0.03,-0.04,255,0,-0.12694,0.15089,10.03753,-0.01106,-0.01199,-0.00640,-5.00000,0.00000,0.00000
5040,50,-0.07,-0.04,-0.04,255,0,-0.13412,0.12694,10.03274,-0.00773,-0.01212,-0.00653,-5.00000,0.00000,0.00000
5050,50,0.04,-0.02,-0.04,255,0,-0.11736,0.11496,10.03992,-0.01053,-0.01359,-0.00573,-5.00000,0.00000,0.00000
5060,50,-0.07,-0.02,-0.04,255,0,-0.12215,0.13891,10.02795,-0.01106,-0.01266,-0.00640,-5.00000,0.00000,0.00000
5070,50,0.04,-0.03,-0.04,255,0,-0.11496,0.13652,10.03992,-0.00906,-0.00853,-0.00546,-5.00000,0.00000,0.00000
5080,50,-0.07,-0.02,-0.04,255,0,-0.11736,0.10778,10.03034,-0.01053,-0.01252,-0.00626,-5.00000,0.00000,0.00000
5090,50,0.04,-0.06,-0.04,255,0,-0.10778,0.12454,10.03753,-0.00813,-0.01119,-0.00733,-5.00000,0.00000,0.00000
5100,50,-0.06,-0.01,-0.04,255,0,-0.12215,0.13652,10.01597,-0.01053,-0.01212,-0.00413,-5.00000,0.00000,0.00000
5110,50,0.03,-0.07,-0.04,255,0,-0.11017,0.12933,10.03753,-0.00933,-0.01026,-0.00706,-5.00000,0.00000,0.00000
5120,50,-0.02,0.03,-0.04,255,0,-0.11736,0.15807,10.01358,-0.01079,-0.01266,-0.00666,-5.00000,0.00000,0.00000
5130,50,0.06,-0.05,-0.04,255,0,-0.11017,0.17005,10.03034,-0.00879,-0.01212,-0.00586,-5.00000,0.00000,0.00000
5140,50,-0.03,0.02,-0.04,255,0,-0.12933,0.11975,10.05669,-0.00959,-0.01359,-0.00520,-5.00000,0.00000,0.00000
5150,50,0.06,-0.06,-0.04,255,0,-0.09580,0.15328,10.02795,-0.01026,-0.01132,-0.00520,-5.00000,0.00000,0.00000
5160,50,-0.06,-0.04,-0.04,255,0,-0.11257,0.10299,10.04471,-0.00986,-0.01319,-0.00440,-5.00000,0.00000,0.00000
5170,50,-0.01,0.06,-0.04,255,0,-0.13412,0.09101,10.10459,-0.00799,-0.01132,-0.00746,-5.00000,0.00000,0.00000
5180,50,-0.09,-0.02,-0.04,255,0,-0.05509,0.03832,9.99921,-0.00719,-0.01146,-0.00626,-5.00000,0.00000,0.00000
5190,50,-0.20,-0.02,-0.04,255,0,-0.17484,0.05988,10.00639,-0.00866,-0.00879,-0.00586,-5.00000,0.00000,0.00000
5200,49,-0.26,-0.12,-0.04,255,0,-0.01437,0.04311,10.14770,-0.00893,-0.01226,-0.00466,-5.00000,0.00000,0.00000
5210,49,-0.31,-0.01,-0.04,255,0,-0.15807,0.07904,10.03753,-0.01119,-0.00879,-0.00426,-5.00000,0.00000,0.00000
5220,49,-0.37,-0.11,-0.05,255,0,-0.03593,-0.01677,9.95370,-0.00786,-0.01346,0.00506,-5.00000,0.00000,0.00000
5230,49,-0.43,-0.21,-0.06,255,0,1.02267,-0.55325,10.17883,-0.01732,-0.01759,0.04636,-5.00000,0.00000,0.00000
5240,49,-0.47,-0.32,-0.08,255,0,0.23232,0.06946,10.05669,-0.00786,-0.01585,0.04690,-5.00000,0.00000,0.00000
5250,49,-0.50,-0.43,-0.11,255,0,0.54367,-0.04551,10.31774,-0.00440,-0.00746,0.06129,-5.00000,0.00000,0.00000
5260,49,-0.51,-0.54,-0.14,255,0,0.19400,0.19160,9.92496,-0.00360,-0.00693,0.04463,-5.00000,0.00000,0.00000
5270,49,-0.46,-0.64,-0.17,255,0,-0.24429,0.57480,10.17165,-0.01292,-0.00666,0.05316,-5.00000,0.00000,0.00000
5280,50,-0.36,-0.70,-0.19,255,0,-0.28501,0.26585,9.97765,-0.00879,-0.00706,0.03357,-5.00000,0.00000,0.00000
5290,50,-0.26,-0.64,-0.22,255,0,-0.73767,0.74964,10.15009,-0.01132,-0.00706,0.01799,-5.00000,0.00000,0.00000
5300,50,-0.18,-0.55,-0.23,255,0,-0.95082,0.62750,9.97526,-0.00986,-0.01199,0.00626,-5.00000,0.00000,0.00000
5310,50,-0.12,-0.46,-0.24,255,0,-1.39869,0.74246,9.99202,-0.01532,-0.00813,-0.00253,-5.00000,0.00000,0.00000
5320,50,-0.06,-0.36,-0.25,255,0,-0.67540,0.46224,10.04471,-0.01292,-0.01252,0.01146,-5.00000,0.00000,0.00000
5330,50,-0.01,-0.26,-0.26,255,0,-1.32924,0.39039,10.14291,-0.01332,-0.01026,-0.00373,-5.00000,0.00000,0.00000
5340,50,0.04,-0.15,-0.26,255,0,-0.44787,0.35446,9.87946,-0.01053,-0.01599,-0.01092,-5.00000,0.00000,0.00000
5350,50,0.08,-0.05,-0.25,255,0,-0.66342,0.01916,9.79084,-0.01079,-0.01452,-0.04223,-5.00000,0.00000,0.00000
5360,49,0.11,0.06,-0.23,255,0,-0.42152,0.32572,10.09501,-0.01092,-0.01053,-0.07847,-5.00000,0.00000,0.00000
5370,49,0.15,0.17,-0.20,255,0,-0.47661,0.19400,10.04471,-0.01212,-0.01479,-0.09819,-5.00000,0.00000,0.00000
5380,49,0.18,0.28,-0.16,255,0,-0.20358,0.04311,10.15249,-0.01239,-0.01545,-0.11431,-5.00000,0.00000,0.00000
5390,49,0.16,0.39,-0.10,255,0,0.17484,-0.27782,9.87227,-0.01665,-0.01532,-0.12124,-5.00000,0.00000,0.00000
5400,49,0.05,0.38,-0.05,255,0,0.55325,-0.41434,10.07824,-0.01079,-0.01426,-0.10485,-5.00000,0.00000,0.00000
5410,49,-0.04,0.31,0.00,255,0,0.62510,-0.39518,10.05908,-0.01079,-0.01186,-0.08154,-5.00000,0.00000,0.00000
5420,49,-0.10,0.21,0.04,255,0,1.05381,-0.31854,10.16446,-0.00826,-0.01545,-0.04930,-5.00000,0.00000,0.00000
5430,49,-0.14,0.10,0.07,255,0,0.76162,0.02635,10.17404,-0.00826,-0.01239,-0.02398,-5.00000,0.00000,0.00000
5440,50,-0.18,-0.01,0.09,255,0,0.92687,0.03832,10.03274,-0.00786,-0.01679,-0.00719,-5.00000,0.00000,0.00000
5450,50,-0.21,-0.12,0.09,255,0,0.47182,-0.06227,10.09022,-0.01159,-0.01426,0.01679,-5.00000,0.00000,0.00000
